[
  {
    "StoreId": 1,
    "Code": "1004",
    "Street": "ul. Gen. Kutrzeby 1",
    "City": "Murowana Goślina",
    "Latitude": 52.56706900,
    "Longitude": 16.99418200,
    "L4": 5317,
    "L6": 526170,
    "IsActive": true
  },
  {
    "StoreId": 2,
    "Code": "1005",
    "Street": "ul. Nowokarsiborska 2",
    "City": "Świnoujście",
    "Latitude": 53.89943300,
    "Longitude": 14.23437600,
    "L4": 5414,
    "L6": 539142,
    "IsActive": true
  },
  {
    "StoreId": 3,
    "Code": "1006",
    "Street": "Os. Przemysława II 7",
    "City": "Rogoźno",
    "Latitude": 52.75081300,
    "Longitude": 16.98811100,
    "L4": 5317,
    "L6": 528170,
    "IsActive": true
  },
  {
    "StoreId": 4,
    "Code": "1008",
    "Street": "ul. Łąkowa 3",
    "City": "Gostyń",
    "Latitude": 51.87638300,
    "Longitude": 17.01748600,
    "L4": 5217,
    "L6": 519170,
    "IsActive": true
  },
  {
    "StoreId": 5,
    "Code": "1009",
    "Street": "ul. Sokoła 26",
    "City": "Poznań",
    "Latitude": 52.42652600,
    "Longitude": 16.91176900,
    "L4": 5217,
    "L6": 524169,
    "IsActive": true
  },
  {
    "StoreId": 6,
    "Code": "1010",
    "Street": "Os. Piastowskie 22",
    "City": "Poznań",
    "Latitude": 52.39452600,
    "Longitude": 16.94501000,
    "L4": 5217,
    "L6": 524169,
    "IsActive": true
  },
  {
    "StoreId": 7,
    "Code": "1011",
    "Street": "ul. Marcelińska 77",
    "City": "Poznań",
    "Latitude": 52.40477500,
    "Longitude": 16.87399100,
    "L4": 5217,
    "L6": 524169,
    "IsActive": true
  },
  {
    "StoreId": 8,
    "Code": "1012",
    "Street": "ul. Żurawinowa 2",
    "City": "Poznań",
    "Latitude": 52.36751700,
    "Longitude": 16.90462900,
    "L4": 5217,
    "L6": 524169,
    "IsActive": true
  },
  {
    "StoreId": 9,
    "Code": "1013",
    "Street": "ul. Dworcowa 17a",
    "City": "Budzyń",
    "Latitude": 52.89014300,
    "Longitude": 16.97677300,
    "L4": 5317,
    "L6": 529170,
    "IsActive": true
  },
  {
    "StoreId": 10,
    "Code": "1014",
    "Street": "ul. Opieszyn 7",
    "City": "Września",
    "Latitude": 52.32225100,
    "Longitude": 17.56929300,
    "L4": 5218,
    "L6": 523176,
    "IsActive": true
  },
  {
    "StoreId": 11,
    "Code": "1015",
    "Street": "ul. Powstańców Wlkp. 20",
    "City": "Oborniki Wielkopolskie",
    "Latitude": 52.64422600,
    "Longitude": 16.81485300,
    "L4": 5317,
    "L6": 526168,
    "IsActive": true
  },
  {
    "StoreId": 12,
    "Code": "1020",
    "Street": "ul. Witosa 7",
    "City": "Nowy Tomyśl",
    "Latitude": 52.31449700,
    "Longitude": 16.12964400,
    "L4": 5216,
    "L6": 523161,
    "IsActive": true
  },
  {
    "StoreId": 13,
    "Code": "1021",
    "Street": "ul. Hallera 11",
    "City": "Środa Wielkopolska",
    "Latitude": 52.22998100,
    "Longitude": 17.26543100,
    "L4": 5217,
    "L6": 522173,
    "IsActive": true
  },
  {
    "StoreId": 14,
    "Code": "1022",
    "Street": "Os. Zwycięstwa 110",
    "City": "Poznań",
    "Latitude": 52.43804500,
    "Longitude": 16.92201600,
    "L4": 5217,
    "L6": 524169,
    "IsActive": true
  },
  {
    "StoreId": 15,
    "Code": "1023",
    "Street": "ul. Piłsudskiego 47",
    "City": "Nowa Sól"
  },
  {
    "StoreId": 16,
    "Code": "1027",
    "Street": "ul. Powstańców Wlkp. 40",
    "City": "Jarocin",
    "Latitude": 51.95552500,
    "Longitude": 17.51748200,
    "L4": 5218,
    "L6": 520175,
    "IsActive": true
  },
  {
    "StoreId": 17,
    "Code": "1028",
    "Street": "ul. Gomułki 1",
    "City": "Gliwice",
    "Latitude": 50.31266400,
    "Longitude": 18.61782100,
    "L4": 5019,
    "L6": 503186,
    "IsActive": true
  },
  {
    "StoreId": 18,
    "Code": "1030",
    "Street": "ul. Brzeźnicka 5",
    "City": "Poznań",
    "Latitude": 52.39055800,
    "Longitude": 16.87539500,
    "L4": 5217,
    "L6": 524169,
    "IsActive": true
  },
  {
    "StoreId": 19,
    "Code": "1032",
    "Street": "ul. Przemysłowa 10",
    "City": "Wolsztyn",
    "Latitude": 52.10586200,
    "Longitude": 16.11997200,
    "L4": 5216,
    "L6": 521161,
    "IsActive": true
  },
  {
    "StoreId": 20,
    "Code": "1034",
    "Street": "ul. Staromiejska 29",
    "City": "Białogard",
    "Latitude": 54.00537700,
    "Longitude": 15.98932900,
    "L4": 5416,
    "L6": 540160,
    "IsActive": true
  },
  {
    "StoreId": 21,
    "Code": "1035",
    "Street": "Al. Powstańców Wielkopolskich 68",
    "City": "Piła",
    "Latitude": 53.15702100,
    "Longitude": 16.74883200,
    "L4": 5317,
    "L6": 532167,
    "IsActive": true
  },
  {
    "StoreId": 22,
    "Code": "1036",
    "Street": "ul. Braci Tułodzieckich 1",
    "City": "Sierpc",
    "Latitude": 52.85184700,
    "Longitude": 19.66894900,
    "L4": 5320,
    "L6": 529197,
    "IsActive": true
  },
  {
    "StoreId": 23,
    "Code": "1037",
    "Street": "ul. Kolejowa 2a",
    "City": "Syców",
    "Latitude": 51.30398300,
    "Longitude": 17.71516800,
    "L4": 5118,
    "L6": 513177,
    "IsActive": true
  },
  {
    "StoreId": 24,
    "Code": "1039",
    "Street": "ul. Modzelewskiego 27",
    "City": "Warszawa",
    "Latitude": 52.17857000,
    "Longitude": 21.01337000,
    "L4": 5221,
    "L6": 522210,
    "IsActive": true
  },
  {
    "StoreId": 25,
    "Code": "1040",
    "Street": "ul. Długa 2",
    "City": "Mława"
  },
  {
    "StoreId": 26,
    "Code": "1042",
    "Street": "ul. Norwida 2",
    "City": "Głuchołazy",
    "Latitude": 50.31929000,
    "Longitude": 17.37672400,
    "L4": 5017,
    "L6": 503174,
    "IsActive": true
  },
  {
    "StoreId": 27,
    "Code": "1043",
    "Street": "ul. Ogrodowa 5",
    "City": "Turek",
    "Latitude": 52.01379800,
    "Longitude": 18.50016300,
    "L4": 5219,
    "L6": 520185,
    "IsActive": true
  },
  {
    "StoreId": 28,
    "Code": "1048",
    "Street": "ul. Jana Dekana 8",
    "City": "Leszno"
  },
  {
    "StoreId": 29,
    "Code": "1050",
    "Street": "ul. Sportowa 7",
    "City": "Ostrzeszów",
    "Latitude": 51.42418600,
    "Longitude": 17.93450000,
    "L4": 5118,
    "L6": 514179,
    "IsActive": true
  },
  {
    "StoreId": 30,
    "Code": "1051",
    "Street": "ul. Sikorskiego 30",
    "City": "Chełmża",
    "Latitude": 53.18518000,
    "Longitude": 18.60507100,
    "L4": 5319,
    "L6": 532186,
    "IsActive": true
  },
  {
    "StoreId": 31,
    "Code": "1052",
    "Street": "ul. Włocławska 16b",
    "City": "Koło",
    "Latitude": 52.20394300,
    "Longitude": 18.64148800,
    "L4": 5219,
    "L6": 522186,
    "IsActive": true
  },
  {
    "StoreId": 32,
    "Code": "1053",
    "Street": "ul. Teatralna 18",
    "City": "Nowa Ruda",
    "Latitude": 50.58088300,
    "Longitude": 16.49673200,
    "L4": 5116,
    "L6": 506165,
    "IsActive": true
  },
  {
    "StoreId": 33,
    "Code": "1054",
    "Street": "ul. Mertki 12",
    "City": "Ostrów Wielkopolski",
    "Latitude": 51.63843200,
    "Longitude": 17.83264000,
    "L4": 5218,
    "L6": 516178,
    "IsActive": true
  },
  {
    "StoreId": 34,
    "Code": "1056",
    "Street": "ul. Świerkowa 54",
    "City": "Suwałki",
    "Latitude": 54.11419700,
    "Longitude": 22.94257900,
    "L4": 5423,
    "L6": 541229,
    "IsActive": true
  },
  {
    "StoreId": 35,
    "Code": "1057",
    "Street": "ul. Obrońców Wybrzeża 27",
    "City": "Gdańsk"
  },
  {
    "StoreId": 36,
    "Code": "1058",
    "Street": "ul. Okopowa 13a",
    "City": "Kołobrzeg",
    "Latitude": 54.18067600,
    "Longitude": 15.57799200,
    "L4": 5416,
    "L6": 542156,
    "IsActive": true
  },
  {
    "StoreId": 37,
    "Code": "1059",
    "Street": "ul. Radockiego 150",
    "City": "Katowice",
    "Latitude": 50.20231500,
    "Longitude": 18.99007300,
    "L4": 5019,
    "L6": 502190,
    "IsActive": true
  },
  {
    "StoreId": 38,
    "Code": "1061",
    "Street": "ul. Okólna 113a",
    "City": "Częstochowa",
    "Latitude": 50.82742000,
    "Longitude": 19.10540200,
    "L4": 5119,
    "L6": 508191,
    "IsActive": true
  },
  {
    "StoreId": 39,
    "Code": "1062",
    "Street": "ul. Norwida 26",
    "City": "Ruda Śląska",
    "Latitude": 50.30827300,
    "Longitude": 18.85737900,
    "L4": 5019,
    "L6": 503189,
    "IsActive": true
  },
  {
    "StoreId": 40,
    "Code": "1064",
    "Street": "ul. Niepodległości 9",
    "City": "Knurów",
    "Latitude": 50.22007100,
    "Longitude": 18.66689600,
    "L4": 5019,
    "L6": 502187,
    "IsActive": true
  },
  {
    "StoreId": 41,
    "Code": "1066",
    "Street": "ul. Czysta 7",
    "City": "Radom"
  },
  {
    "StoreId": 42,
    "Code": "1067",
    "Street": "ul. Zygmuntowska 8",
    "City": "Rzeszów",
    "Latitude": 50.03563000,
    "Longitude": 21.99963800,
    "L4": 5022,
    "L6": 500220,
    "IsActive": true
  },
  {
    "StoreId": 43,
    "Code": "1068",
    "Street": "ul. Bąka 10",
    "City": "Ostrów Wielkopolski"
  },
  {
    "StoreId": 44,
    "Code": "1070",
    "Street": "ul. Dunikowskiego 58",
    "City": "Wałbrzych"
  },
  {
    "StoreId": 45,
    "Code": "1074",
    "Street": "Os. Czwartaków 13",
    "City": "Swarzędz",
    "Latitude": 52.41682400,
    "Longitude": 17.08024300,
    "L4": 5217,
    "L6": 524171,
    "IsActive": true
  },
  {
    "StoreId": 46,
    "Code": "1076",
    "Street": "ul. Szymanowskiego 27a",
    "City": "Żary",
    "Latitude": 51.64313200,
    "Longitude": 15.12590700,
    "L4": 5215,
    "L6": 516151,
    "IsActive": true
  },
  {
    "StoreId": 47,
    "Code": "1083",
    "Street": "ul. 11 Listopada 45",
    "City": "Siemiatycze",
    "Latitude": 52.42286500,
    "Longitude": 22.86760200,
    "L4": 5223,
    "L6": 524229,
    "IsActive": true
  },
  {
    "StoreId": 48,
    "Code": "1084",
    "Street": "ul. Mickiewicza 14a",
    "City": "Busko-Zdrój",
    "Latitude": 50.46450200,
    "Longitude": 20.71887900,
    "L4": 5021,
    "L6": 505207,
    "IsActive": true
  },
  {
    "StoreId": 49,
    "Code": "1085",
    "Street": "ul. Skrzetuskiego 11",
    "City": "Łódź",
    "Latitude": 51.74611400,
    "Longitude": 19.56572900,
    "L4": 5220,
    "L6": 517196,
    "IsActive": true
  },
  {
    "StoreId": 50,
    "Code": "1089",
    "Street": "ul. Waryńskiego 18",
    "City": "Lębork",
    "Latitude": 54.54388600,
    "Longitude": 17.75218100,
    "L4": 5518,
    "L6": 545178,
    "IsActive": true
  },
  {
    "StoreId": 51,
    "Code": "1092",
    "Street": "ul. Jagiellońska 29/37",
    "City": "Częstochowa"
  },
  {
    "StoreId": 52,
    "Code": "1094",
    "Street": "Pl. Konstytucji 3-Maja 5",
    "City": "Pionki"
  },
  {
    "StoreId": 53,
    "Code": "1096",
    "Street": "ul. Zbiegniewskiej 19",
    "City": "Włocławek",
    "Latitude": 52.63960900,
    "Longitude": 19.04353300,
    "L4": 5319,
    "L6": 526190,
    "IsActive": true
  },
  {
    "StoreId": 54,
    "Code": "1098",
    "Street": "ul. Niedziałkowskiego 4",
    "City": "Myślibórz",
    "Latitude": 52.92359800,
    "Longitude": 14.86466300,
    "L4": 5315,
    "L6": 529149,
    "IsActive": true
  },
  {
    "StoreId": 55,
    "Code": "1099",
    "Street": "ul. Armii Krajowej 38",
    "City": "Mysłowice",
    "Latitude": 50.23581000,
    "Longitude": 19.13696000,
    "L4": 5019,
    "L6": 502191,
    "IsActive": true
  },
  {
    "StoreId": 56,
    "Code": "1101",
    "Street": "ul. Zamoyskiego 6",
    "City": "Zamość",
    "Latitude": 50.71940700,
    "Longitude": 23.27337600,
    "L4": 5123,
    "L6": 507233,
    "IsActive": true
  },
  {
    "StoreId": 57,
    "Code": "1103",
    "Street": "ul. Kalinowa 81",
    "City": "Sosnowiec",
    "Latitude": 50.26144900,
    "Longitude": 19.17860400,
    "L4": 5019,
    "L6": 503192,
    "IsActive": true
  },
  {
    "StoreId": 58,
    "Code": "1104",
    "Street": "ul. Mickiewicza 75a",
    "City": "Toruń",
    "Latitude": 53.01116700,
    "Longitude": 18.57902800,
    "L4": 5319,
    "L6": 530186,
    "IsActive": true
  },
  {
    "StoreId": 59,
    "Code": "1106",
    "Street": "ul. 3 Maja 62",
    "City": "Hajnówka",
    "Latitude": 52.73339100,
    "Longitude": 23.59787400,
    "L4": 5324,
    "L6": 527236,
    "IsActive": true
  },
  {
    "StoreId": 60,
    "Code": "1112",
    "Street": "ul. Popowicka 134",
    "City": "Wrocław",
    "Latitude": 51.12832600,
    "Longitude": 16.98894900,
    "L4": 5117,
    "L6": 511170,
    "IsActive": true
  },
  {
    "StoreId": 61,
    "Code": "1113",
    "Street": "ul. Jana Pawła II 7",
    "City": "Łask",
    "Latitude": 51.58727700,
    "Longitude": 19.13435700,
    "L4": 5219,
    "L6": 516191,
    "IsActive": true
  },
  {
    "StoreId": 62,
    "Code": "1115",
    "Street": "ul. 1 Maja 4-8",
    "City": "Żyrardów",
    "Latitude": 52.05182900,
    "Longitude": 20.44281100,
    "L4": 5220,
    "L6": 521204,
    "IsActive": true
  },
  {
    "StoreId": 63,
    "Code": "1116",
    "Street": "ul. Głowackiego 10",
    "City": "Police",
    "Latitude": 53.54555800,
    "Longitude": 14.55331000,
    "L4": 5415,
    "L6": 535146,
    "IsActive": true
  },
  {
    "StoreId": 64,
    "Code": "1117",
    "Street": "ul. Grunwaldzka 8",
    "City": "Kłodzko",
    "Latitude": 50.43734300,
    "Longitude": 16.66177100,
    "L4": 5017,
    "L6": 504167,
    "IsActive": true
  },
  {
    "StoreId": 65,
    "Code": "1123",
    "Street": "ul. Bohaterów Westerplatte 33",
    "City": "Zawiercie",
    "Latitude": 50.49027900,
    "Longitude": 19.43381400,
    "L4": 5019,
    "L6": 505194,
    "IsActive": true
  },
  {
    "StoreId": 66,
    "Code": "1125",
    "Street": "ul. Szpitalna 8",
    "City": "Czeladź",
    "Latitude": 50.32173700,
    "Longitude": 19.07156500,
    "L4": 5019,
    "L6": 503191,
    "IsActive": true
  },
  {
    "StoreId": 67,
    "Code": "1126",
    "Street": "ul. Biernackiego 13",
    "City": "Opoczno",
    "Latitude": 51.37772100,
    "Longitude": 20.28233700,
    "L4": 5120,
    "L6": 514203,
    "IsActive": true
  },
  {
    "StoreId": 68,
    "Code": "1129",
    "Street": "ul. Sportowa 12",
    "City": "Gryfice",
    "Latitude": 53.91379200,
    "Longitude": 15.20692300,
    "L4": 5415,
    "L6": 539152,
    "IsActive": true
  },
  {
    "StoreId": 69,
    "Code": "1130",
    "Street": "ul. Adamieckiego 11a",
    "City": "Dąbrowa Górnicza",
    "Latitude": 50.32200500,
    "Longitude": 19.19717100,
    "L4": 5019,
    "L6": 503192,
    "IsActive": true
  },
  {
    "StoreId": 70,
    "Code": "1132",
    "Street": "ul. E. Orzeszkowej 17",
    "City": "Lwówek Śląski",
    "Latitude": 51.11025800,
    "Longitude": 15.58465400,
    "L4": 5116,
    "L6": 511156,
    "IsActive": true
  },
  {
    "StoreId": 71,
    "Code": "1133",
    "Street": "ul. Zdrojowa 32",
    "City": "Nowy Sącz",
    "Latitude": 49.63201900,
    "Longitude": 20.69960400,
    "L4": 5021,
    "L6": 496207,
    "IsActive": true
  },
  {
    "StoreId": 72,
    "Code": "1136",
    "Street": "ul. Nastrojowa 8",
    "City": "Łódź",
    "Latitude": 51.82400500,
    "Longitude": 19.44021500,
    "L4": 5219,
    "L6": 518194,
    "IsActive": true
  },
  {
    "StoreId": 73,
    "Code": "1137",
    "Street": "ul. Piaskowa 21",
    "City": "Koziegłowy",
    "Latitude": 52.44618400,
    "Longitude": 16.98919200,
    "L4": 5217,
    "L6": 524170,
    "IsActive": true
  },
  {
    "StoreId": 74,
    "Code": "1142",
    "Street": "ul. Nowopogońska 228",
    "City": "Czeladź",
    "Latitude": 50.30358800,
    "Longitude": 19.09599700,
    "L4": 5019,
    "L6": 503191,
    "IsActive": true
  },
  {
    "StoreId": 75,
    "Code": "1144",
    "Street": "ul. Staszica 17",
    "City": "Szydłowiec",
    "Latitude": 51.22832800,
    "Longitude": 20.86900400,
    "L4": 5121,
    "L6": 512209,
    "IsActive": true
  },
  {
    "StoreId": 76,
    "Code": "1146",
    "Street": "ul. Porębskiego 8",
    "City": "Gdańsk",
    "Latitude": 54.31909500,
    "Longitude": 18.58267700,
    "L4": 5419,
    "L6": 543186,
    "IsActive": true
  },
  {
    "StoreId": 77,
    "Code": "1149",
    "Street": "ul. Prusa 7",
    "City": "Drawsko Pomorskie",
    "Latitude": 53.53643300,
    "Longitude": 15.81037400,
    "L4": 5416,
    "L6": 535158,
    "IsActive": true
  },
  {
    "StoreId": 78,
    "Code": "1150",
    "Street": "ul. 27 Stycznia 4a",
    "City": "Grodzisk Wielkopolski",
    "Latitude": 52.22432200,
    "Longitude": 16.36294100,
    "L4": 5216,
    "L6": 522164,
    "IsActive": true
  },
  {
    "StoreId": 79,
    "Code": "1151",
    "Street": "ul. Dehnelów 17",
    "City": "Czeladź"
  },
  {
    "StoreId": 80,
    "Code": "1152",
    "Street": "Pl. 1 Maja 3",
    "City": "Głubczyce",
    "Latitude": 50.20354300,
    "Longitude": 17.82663700,
    "L4": 5018,
    "L6": 502178,
    "IsActive": true
  },
  {
    "StoreId": 81,
    "Code": "1153",
    "Street": "ul. Oświęcimska 1A",
    "City": "Siemianowice Śląskie",
    "Latitude": 50.31819500,
    "Longitude": 19.00438700,
    "L4": 5019,
    "L6": 503190,
    "IsActive": true
  },
  {
    "StoreId": 82,
    "Code": "1156",
    "Street": "ul. Strażacka 2",
    "City": "Gdynia",
    "Latitude": 54.49903224,
    "Longitude": 18.51086159,
    "L4": 5419,
    "L6": 545185,
    "IsActive": true
  },
  {
    "StoreId": 83,
    "Code": "1158",
    "Street": "ul. Ryszki 57",
    "City": "Chorzów",
    "Latitude": 50.28619300,
    "Longitude": 18.95323500,
    "L4": 5019,
    "L6": 503190,
    "IsActive": true
  },
  {
    "StoreId": 84,
    "Code": "1163",
    "Street": "ul. Szkolna 2",
    "City": "Bielsk Podlaski",
    "Latitude": 52.77507300,
    "Longitude": 23.19203200,
    "L4": 5323,
    "L6": 528232,
    "IsActive": true
  },
  {
    "StoreId": 85,
    "Code": "1164",
    "Street": "ul. Górska 11",
    "City": "Lublin",
    "Latitude": 51.26686800,
    "Longitude": 22.55597600,
    "L4": 5123,
    "L6": 513226,
    "IsActive": true
  },
  {
    "StoreId": 86,
    "Code": "1165",
    "Street": "ul. Uniejowska 4",
    "City": "Warszawa",
    "Latitude": 52.25092200,
    "Longitude": 20.91489500,
    "L4": 5221,
    "L6": 523209,
    "IsActive": true
  },
  {
    "StoreId": 87,
    "Code": "1166",
    "Street": "ul. Krasickiego 5",
    "City": "Radomsko",
    "Latitude": 51.07346600,
    "Longitude": 19.43424400,
    "L4": 5119,
    "L6": 511194,
    "IsActive": true
  },
  {
    "StoreId": 88,
    "Code": "1167",
    "Street": "ul. Reymonta 1",
    "City": "Skierniewice",
    "Latitude": 51.95674800,
    "Longitude": 20.14718000,
    "L4": 5220,
    "L6": 520201,
    "IsActive": true
  },
  {
    "StoreId": 89,
    "Code": "1168",
    "Street": "ul. Korolowska 2",
    "City": "Włodawa",
    "Latitude": 51.54584900,
    "Longitude": 23.54766400,
    "L4": 5224,
    "L6": 515235,
    "IsActive": true
  },
  {
    "StoreId": 90,
    "Code": "1170",
    "Street": "ul. Wyszyńskiego 15",
    "City": "Olsztyn",
    "Latitude": 53.76412300,
    "Longitude": 20.50301200,
    "L4": 5421,
    "L6": 538205,
    "IsActive": true
  },
  {
    "StoreId": 91,
    "Code": "1171",
    "Street": "ul. Mostowa 2",
    "City": "Bolesławiec",
    "Latitude": 51.27069900,
    "Longitude": 15.55659900,
    "L4": 5116,
    "L6": 513156,
    "IsActive": true
  },
  {
    "StoreId": 92,
    "Code": "1173",
    "Street": "ul. Głogowska 19",
    "City": "Polkowice"
  },
  {
    "StoreId": 93,
    "Code": "1174",
    "Street": "ul. Bożka 11",
    "City": "Jelcz-Laskowice"
  },
  {
    "StoreId": 94,
    "Code": "1175",
    "Street": "Os. Rzeczypospolitej 43",
    "City": "Poznań",
    "Latitude": 52.38642600,
    "Longitude": 16.94715000,
    "L4": 5217,
    "L6": 524169,
    "IsActive": true
  },
  {
    "StoreId": 95,
    "Code": "1179",
    "Street": "ul. Wysockiego 3a",
    "City": "Piastów",
    "Latitude": 52.19002500,
    "Longitude": 20.83879700,
    "L4": 5221,
    "L6": 522208,
    "IsActive": true
  },
  {
    "StoreId": 96,
    "Code": "1181",
    "Street": "ul. Okrężna 41",
    "City": "Świdnica",
    "Latitude": 50.83885700,
    "Longitude": 16.50818600,
    "L4": 5117,
    "L6": 508165,
    "IsActive": true
  },
  {
    "StoreId": 97,
    "Code": "1182",
    "Street": "ul. Kasprzaka 16",
    "City": "Dąbrowa Górnicza",
    "Latitude": 50.33166200,
    "Longitude": 19.22969200,
    "L4": 5019,
    "L6": 503192,
    "IsActive": true
  },
  {
    "StoreId": 98,
    "Code": "1186",
    "Street": "ul. Konstytucji 3 Maja 9/11",
    "City": "Tomaszów Mazowiecki",
    "Latitude": 51.53406200,
    "Longitude": 20.01182000,
    "L4": 5220,
    "L6": 515200,
    "IsActive": true
  },
  {
    "StoreId": 99,
    "Code": "1188",
    "Street": "ul. Komorowicka 336b",
    "City": "Bielsko-Biała",
    "Latitude": 49.85362600,
    "Longitude": 19.04495000,
    "L4": 5019,
    "L6": 499190,
    "IsActive": true
  },
  {
    "StoreId": 100,
    "Code": "1189",
    "Street": "Os. Jagiellońskie 14",
    "City": "Poznań",
    "Latitude": 52.39281300,
    "Longitude": 16.95113000,
    "L4": 5217,
    "L6": 524170,
    "IsActive": true
  },
  {
    "StoreId": 101,
    "Code": "1190",
    "Street": "ul. Wojska Polskiego 47",
    "City": "Darłowo",
    "Latitude": 54.41521500,
    "Longitude": 16.41154100,
    "L4": 5416,
    "L6": 544164,
    "IsActive": true
  },
  {
    "StoreId": 102,
    "Code": "1191",
    "Street": "ul. Lazowskiego 42",
    "City": "Lódz"
  },
  {
    "StoreId": 103,
    "Code": "1192",
    "Street": "ul. Bogusławskiego 2",
    "City": "Ostrołęka",
    "Latitude": 53.08389100,
    "Longitude": 21.57189900,
    "L4": 5322,
    "L6": 531216,
    "IsActive": true
  },
  {
    "StoreId": 104,
    "Code": "1194",
    "Street": "ul. Pomorska 15",
    "City": "Legnica"
  },
  {
    "StoreId": 105,
    "Code": "1196",
    "Street": "Medyka 405",
    "City": "Medyka",
    "Latitude": 49.80057500,
    "Longitude": 22.94058300,
    "L4": 5023,
    "L6": 498229,
    "IsActive": true
  },
  {
    "StoreId": 106,
    "Code": "1198",
    "Street": "ul. Świdnicka 2",
    "City": "Wałbrzych",
    "Latitude": 50.74775500,
    "Longitude": 16.29492600,
    "L4": 5116,
    "L6": 507163,
    "IsActive": true
  },
  {
    "StoreId": 107,
    "Code": "1201",
    "Street": "ul. Armii Krajowej 34",
    "City": "Lębork",
    "Latitude": 54.54004100,
    "Longitude": 17.74197900,
    "L4": 5518,
    "L6": 545177,
    "IsActive": true
  },
  {
    "StoreId": 108,
    "Code": "1203",
    "Street": "ul. Piastowskiej 19",
    "City": "Międzyrzecz"
  },
  {
    "StoreId": 109,
    "Code": "1205",
    "Street": "ul. Małachowskiego 14",
    "City": "Poznań",
    "Latitude": 52.41345000,
    "Longitude": 16.96008400,
    "L4": 5217,
    "L6": 524170,
    "IsActive": true
  },
  {
    "StoreId": 110,
    "Code": "1206",
    "Street": "ul. Górnicza 1a",
    "City": "Legnica",
    "Latitude": 51.20542100,
    "Longitude": 16.18912100,
    "L4": 5116,
    "L6": 512162,
    "IsActive": true
  },
  {
    "StoreId": 111,
    "Code": "1207",
    "Street": "ul. Topolowa 2",
    "City": "Szczucin",
    "Latitude": 50.31562900,
    "Longitude": 21.07738300,
    "L4": 5021,
    "L6": 503211,
    "IsActive": true
  },
  {
    "StoreId": 112,
    "Code": "1209",
    "Street": "ul. Ignacego Krasickiego 4",
    "City": "Przeworsk",
    "Latitude": 50.06016600,
    "Longitude": 22.49550700,
    "L4": 5022,
    "L6": 501225,
    "IsActive": true
  },
  {
    "StoreId": 113,
    "Code": "1211",
    "Street": "ul. Wojska Polskiego 15",
    "City": "Kołobrzeg",
    "Latitude": 54.17930900,
    "Longitude": 15.56757900,
    "L4": 5416,
    "L6": 542156,
    "IsActive": true
  },
  {
    "StoreId": 114,
    "Code": "1212",
    "Street": "ul. Łokietka 1",
    "City": "Bytom",
    "Latitude": 50.39730700,
    "Longitude": 18.87124300,
    "L4": 5019,
    "L6": 504189,
    "IsActive": true
  },
  {
    "StoreId": 115,
    "Code": "1217",
    "Street": "ul. Strażacka 7",
    "City": "Boguszów-Gorce",
    "Latitude": 50.75573000,
    "Longitude": 16.20555300,
    "L4": 5116,
    "L6": 508162,
    "IsActive": true
  },
  {
    "StoreId": 116,
    "Code": "1219",
    "Street": "ul. Kiełczowska 137a",
    "City": "Wrocław",
    "Latitude": 51.14488900,
    "Longitude": 17.13791400,
    "L4": 5117,
    "L6": 511171,
    "IsActive": true
  },
  {
    "StoreId": 117,
    "Code": "1220",
    "Street": "ul. Słowackiego 12",
    "City": "Wieliczka",
    "Latitude": 49.98441600,
    "Longitude": 20.06424600,
    "L4": 5020,
    "L6": 500201,
    "IsActive": true
  },
  {
    "StoreId": 118,
    "Code": "1221",
    "Street": "ul. Mazowiecka 15",
    "City": "Nowy Dwór Mazowiecki",
    "Latitude": 52.42990400,
    "Longitude": 20.70799900,
    "L4": 5221,
    "L6": 524207,
    "IsActive": true
  },
  {
    "StoreId": 119,
    "Code": "1222",
    "Street": "ul. Wrocławska 3",
    "City": "Opole",
    "Latitude": 50.67021500,
    "Longitude": 17.91229800,
    "L4": 5118,
    "L6": 507179,
    "IsActive": true
  },
  {
    "StoreId": 120,
    "Code": "1223",
    "Street": "ul. Belwederska 77",
    "City": "Łęczyca",
    "Latitude": 52.05345200,
    "Longitude": 19.19169900,
    "L4": 5219,
    "L6": 521192,
    "IsActive": true
  },
  {
    "StoreId": 121,
    "Code": "1224",
    "Street": "ul. Polna 23a",
    "City": "Głogów",
    "Latitude": 51.65235900,
    "Longitude": 16.07655200,
    "L4": 5216,
    "L6": 517161,
    "IsActive": true
  },
  {
    "StoreId": 122,
    "Code": "1225",
    "Street": "ul. Szymanowskiego 8",
    "City": "Zduńska Wola",
    "Latitude": 51.59350000,
    "Longitude": 18.93151700,
    "L4": 5219,
    "L6": 516189,
    "IsActive": true
  },
  {
    "StoreId": 123,
    "Code": "1226",
    "Street": "ul. Śniadeckich 68",
    "City": "Grudziądz",
    "Latitude": 53.46636400,
    "Longitude": 18.72850800,
    "L4": 5319,
    "L6": 535187,
    "IsActive": true
  },
  {
    "StoreId": 124,
    "Code": "1228",
    "Street": "ul. Prosta 4",
    "City": "Koszalin",
    "Latitude": 54.21369700,
    "Longitude": 16.20003500,
    "L4": 5416,
    "L6": 542162,
    "IsActive": true
  },
  {
    "StoreId": 125,
    "Code": "1229",
    "Street": "Al. Wojska Polskiego 116",
    "City": "Kalisz",
    "Latitude": 51.76159100,
    "Longitude": 18.07744200,
    "L4": 5218,
    "L6": 518181,
    "IsActive": true
  },
  {
    "StoreId": 126,
    "Code": "1233",
    "Street": "ul. Wyszyńskiego 19",
    "City": "Toruń",
    "Latitude": 53.01909400,
    "Longitude": 18.68036300,
    "L4": 5319,
    "L6": 530187,
    "IsActive": true
  },
  {
    "StoreId": 127,
    "Code": "1234",
    "Street": "Al. Matki Bożej Fatimskiej 59",
    "City": "Tarnów",
    "Latitude": 50.02154100,
    "Longitude": 20.99489900,
    "L4": 5021,
    "L6": 500210,
    "IsActive": true
  },
  {
    "StoreId": 128,
    "Code": "1236",
    "Street": "ul. Osiedle Kaszubskie 1",
    "City": "Zielona Góra",
    "Latitude": 51.93787100,
    "Longitude": 15.55983200,
    "L4": 5216,
    "L6": 519156,
    "IsActive": true
  },
  {
    "StoreId": 129,
    "Code": "1237",
    "Street": "ul. Południowa 19",
    "City": "Żywiec",
    "Latitude": 49.68372800,
    "Longitude": 19.21516900,
    "L4": 5019,
    "L6": 497192,
    "IsActive": true
  },
  {
    "StoreId": 130,
    "Code": "1238",
    "Street": "Al. 1000-lecia 9",
    "City": "Kraśnik",
    "Latitude": 50.92986500,
    "Longitude": 22.22771100,
    "L4": 5122,
    "L6": 509222,
    "IsActive": true
  },
  {
    "StoreId": 131,
    "Code": "1239",
    "Street": "ul. Bartoka 20",
    "City": "Łódź",
    "Latitude": 51.76156800,
    "Longitude": 19.52223700,
    "L4": 5220,
    "L6": 518195,
    "IsActive": true
  },
  {
    "StoreId": 132,
    "Code": "1241",
    "Street": "ul. Strzelecka 16",
    "City": "Tomaszów Mazowiecki",
    "Latitude": 51.52169300,
    "Longitude": 20.02417700,
    "L4": 5220,
    "L6": 515200,
    "IsActive": true
  },
  {
    "StoreId": 133,
    "Code": "1243",
    "Street": "ul. Drzewieckiego 1",
    "City": "Mielec",
    "Latitude": 50.29392600,
    "Longitude": 21.42564500,
    "L4": 5021,
    "L6": 503214,
    "IsActive": true
  },
  {
    "StoreId": 134,
    "Code": "1244",
    "Street": "ul. Wilanowska 25",
    "City": "Wrocław",
    "Latitude": 51.15548400,
    "Longitude": 17.13306300,
    "L4": 5117,
    "L6": 512171,
    "IsActive": true
  },
  {
    "StoreId": 135,
    "Code": "1245",
    "Street": "ul. Obywatelska 26",
    "City": "Rydułtowy",
    "Latitude": 50.07420200,
    "Longitude": 18.42534400,
    "L4": 5018,
    "L6": 501184,
    "IsActive": true
  },
  {
    "StoreId": 136,
    "Code": "1246",
    "Street": "ul. M. Curie-Skłodowskiej 1b",
    "City": "Rybnik",
    "Latitude": 50.09773100,
    "Longitude": 18.53892100,
    "L4": 5019,
    "L6": 501185,
    "IsActive": true
  },
  {
    "StoreId": 137,
    "Code": "1247",
    "Street": "ul. Turystyczna 49A",
    "City": "Jastrzębie-Zdrój",
    "Latitude": 49.94812400,
    "Longitude": 18.61382700,
    "L4": 5019,
    "L6": 499186,
    "IsActive": true
  },
  {
    "StoreId": 138,
    "Code": "1248",
    "Street": "ul. Malborska 78",
    "City": "Elbląg",
    "Latitude": 54.14815300,
    "Longitude": 19.40586100,
    "L4": 5419,
    "L6": 541194,
    "IsActive": true
  },
  {
    "StoreId": 139,
    "Code": "1250",
    "Street": "ul. Chałubińskiego 27",
    "City": "Gdańsk",
    "Latitude": 54.34049500,
    "Longitude": 18.61943400,
    "L4": 5419,
    "L6": 543186,
    "IsActive": true
  },
  {
    "StoreId": 140,
    "Code": "1253",
    "Street": "ul. Afgańska 3",
    "City": "Wrocław",
    "Latitude": 51.06237600,
    "Longitude": 17.08312200,
    "L4": 5117,
    "L6": 511171,
    "IsActive": true
  },
  {
    "StoreId": 141,
    "Code": "1254",
    "Street": "ul. Kozielska 2",
    "City": "Gliwice",
    "Latitude": 50.29681500,
    "Longitude": 18.65794100,
    "L4": 5019,
    "L6": 503187,
    "IsActive": true
  },
  {
    "StoreId": 142,
    "Code": "1255",
    "Street": "Os. Kościuszki 100",
    "City": "Łaziska Górne",
    "Latitude": 50.13462300,
    "Longitude": 18.87186200,
    "L4": 5019,
    "L6": 501189,
    "IsActive": true
  },
  {
    "StoreId": 143,
    "Code": "1256",
    "Street": "Os. Westerplatte 1",
    "City": "Rawicz",
    "Latitude": 51.61281300,
    "Longitude": 16.85934900,
    "L4": 5217,
    "L6": 516169,
    "IsActive": true
  },
  {
    "StoreId": 144,
    "Code": "1260",
    "Street": "ul. Gałczyńskiego 15",
    "City": "Bolesławiec",
    "Latitude": 51.26258200,
    "Longitude": 15.58297700,
    "L4": 5116,
    "L6": 513156,
    "IsActive": true
  },
  {
    "StoreId": 145,
    "Code": "1261",
    "Street": "ul. Wyszyńskiego 8",
    "City": "Lubin",
    "Latitude": 51.38719900,
    "Longitude": 16.20660000,
    "L4": 5116,
    "L6": 514162,
    "IsActive": true
  },
  {
    "StoreId": 146,
    "Code": "1263",
    "Street": "ul. Obrońców Helu 3",
    "City": "Wejherowo",
    "Latitude": 54.60850900,
    "Longitude": 18.24764800,
    "L4": 5518,
    "L6": 546182,
    "IsActive": true
  },
  {
    "StoreId": 147,
    "Code": "1270",
    "Street": "ul. Zgierska 15",
    "City": "Łódź",
    "Latitude": 51.78490500,
    "Longitude": 19.45357500,
    "L4": 5219,
    "L6": 518195,
    "IsActive": true
  },
  {
    "StoreId": 148,
    "Code": "1272",
    "Street": "pl. J. H. Dąbrowskiego 1a",
    "City": "Nowy Sącz",
    "Latitude": 49.61646900,
    "Longitude": 20.69930800,
    "L4": 5021,
    "L6": 496207,
    "IsActive": true
  },
  {
    "StoreId": 149,
    "Code": "1274",
    "Street": "ul. Dąbrowskiego 2",
    "City": "Lubań",
    "Latitude": 51.11811500,
    "Longitude": 15.28829400,
    "L4": 5115,
    "L6": 511153,
    "IsActive": true
  },
  {
    "StoreId": 150,
    "Code": "1276",
    "Street": "ul. Paderewskiego 56",
    "City": "Gliwice",
    "Latitude": 50.32017100,
    "Longitude": 18.68870800,
    "L4": 5019,
    "L6": 503187,
    "IsActive": true
  },
  {
    "StoreId": 151,
    "Code": "1277",
    "Street": "ul. Teligi 7",
    "City": "Toruń",
    "Latitude": 53.02714500,
    "Longitude": 18.69794600,
    "L4": 5319,
    "L6": 530187,
    "IsActive": true
  },
  {
    "StoreId": 152,
    "Code": "1279",
    "Street": "ul. Paderewskiego 7",
    "City": "Gdańsk"
  },
  {
    "StoreId": 153,
    "Code": "1280",
    "Street": "ul. Zawiszy Czarnego 8",
    "City": "Katowice",
    "Latitude": 50.27960600,
    "Longitude": 18.97728600,
    "L4": 5019,
    "L6": 503190,
    "IsActive": true
  },
  {
    "StoreId": 154,
    "Code": "1282",
    "Street": "ul. Nowowiejska 48",
    "City": "Wrocław",
    "Latitude": 51.12285800,
    "Longitude": 17.05122100,
    "L4": 5117,
    "L6": 511171,
    "IsActive": true
  },
  {
    "StoreId": 155,
    "Code": "1284",
    "Street": "ul. Warneńczyka 11",
    "City": "Mielec",
    "Latitude": 50.28859500,
    "Longitude": 21.46273300,
    "L4": 5021,
    "L6": 503215,
    "IsActive": true
  },
  {
    "StoreId": 156,
    "Code": "1285",
    "Street": "ul. Armii Krajowej 2/4",
    "City": "Dębno",
    "Latitude": 52.73759200,
    "Longitude": 14.69507300,
    "L4": 5315,
    "L6": 527147,
    "IsActive": true
  },
  {
    "StoreId": 157,
    "Code": "1286",
    "Street": "ul. Powstańców 6",
    "City": "Mysłowice",
    "Latitude": 50.23989500,
    "Longitude": 19.14149100,
    "L4": 5019,
    "L6": 502191,
    "IsActive": true
  },
  {
    "StoreId": 158,
    "Code": "1287",
    "Street": "ul. Polna 9a",
    "City": "Ostrowiec Świętokrzyski",
    "Latitude": 50.94258800,
    "Longitude": 21.39923100,
    "L4": 5121,
    "L6": 509214,
    "IsActive": true
  },
  {
    "StoreId": 159,
    "Code": "1288",
    "Street": "ul. Jana Pawła II 56",
    "City": "Dębica",
    "Latitude": 50.06222200,
    "Longitude": 21.39920200,
    "L4": 5021,
    "L6": 501214,
    "IsActive": true
  },
  {
    "StoreId": 160,
    "Code": "1293",
    "Street": "ul. W. Sikorskiego 18A",
    "City": "Myszków",
    "Latitude": 50.57731000,
    "Longitude": 19.33977800,
    "L4": 5119,
    "L6": 506193,
    "IsActive": true
  },
  {
    "StoreId": 161,
    "Code": "1295",
    "Street": "ul. Ryska 1",
    "City": "Białystok",
    "Latitude": 53.14045900,
    "Longitude": 23.17501400,
    "L4": 5323,
    "L6": 531232,
    "IsActive": true
  },
  {
    "StoreId": 162,
    "Code": "1298",
    "Street": "ul. 1 Maja 24",
    "City": "Biskupiec",
    "Latitude": 53.86611400,
    "Longitude": 20.95531700,
    "L4": 5421,
    "L6": 539210,
    "IsActive": true
  },
  {
    "StoreId": 163,
    "Code": "1299",
    "Street": "ul. Wojska Polskiego 4",
    "City": "Libiąż",
    "Latitude": 50.10571700,
    "Longitude": 19.32865300,
    "L4": 5019,
    "L6": 501193,
    "IsActive": true
  },
  {
    "StoreId": 164,
    "Code": "1300",
    "Street": "ul. Kościuszki 12",
    "City": "Lubin",
    "Latitude": 51.40046700,
    "Longitude": 16.20932300,
    "L4": 5116,
    "L6": 514162,
    "IsActive": true
  },
  {
    "StoreId": 165,
    "Code": "1302",
    "Street": "Al. Henryka 44",
    "City": "Chrzanów"
  },
  {
    "StoreId": 166,
    "Code": "1303",
    "Street": "ul. Wilanowska 5",
    "City": "Giżycko",
    "Latitude": 54.04242200,
    "Longitude": 21.76302300,
    "L4": 5422,
    "L6": 540218,
    "IsActive": true
  },
  {
    "StoreId": 167,
    "Code": "1305",
    "Street": "ul. Klonowa 15",
    "City": "Zabrze",
    "Latitude": 50.29496400,
    "Longitude": 18.78474800,
    "L4": 5019,
    "L6": 503188,
    "IsActive": true
  },
  {
    "StoreId": 168,
    "Code": "1306",
    "Street": "ul. J. Słowackiego 29",
    "City": "Sandomierz",
    "Latitude": 50.68456500,
    "Longitude": 21.73893300,
    "L4": 5122,
    "L6": 507217,
    "IsActive": true
  },
  {
    "StoreId": 169,
    "Code": "1307",
    "Street": "ul. Pułaskiego 65",
    "City": "Bytom",
    "Latitude": 50.34959000,
    "Longitude": 18.89025700,
    "L4": 5019,
    "L6": 503189,
    "IsActive": true
  },
  {
    "StoreId": 170,
    "Code": "1308",
    "Street": "ul. Armii Krajowej 1",
    "City": "Łęczna"
  },
  {
    "StoreId": 171,
    "Code": "1309",
    "Street": "ul. Mogielnicka 28",
    "City": "Grójec",
    "Latitude": 51.86545700,
    "Longitude": 20.85926300,
    "L4": 5221,
    "L6": 519209,
    "IsActive": true
  },
  {
    "StoreId": 172,
    "Code": "1311",
    "Street": "pl. Bartosza Głowackiego 46",
    "City": "Tarnobrzeg",
    "Latitude": 50.57441000,
    "Longitude": 21.67140300,
    "L4": 5122,
    "L6": 506217,
    "IsActive": true
  },
  {
    "StoreId": 173,
    "Code": "1314",
    "Street": "ul. Składowa 11",
    "City": "Gorzów Wielkopolski"
  },
  {
    "StoreId": 174,
    "Code": "1316",
    "Street": "ul. Jagiełły 1",
    "City": "Kętrzyn",
    "Latitude": 54.08502500,
    "Longitude": 21.37255800,
    "L4": 5421,
    "L6": 541214,
    "IsActive": true
  },
  {
    "StoreId": 175,
    "Code": "1321",
    "Street": "ul. Opawska 69",
    "City": "Racibórz",
    "Latitude": 50.08375500,
    "Longitude": 18.21041000,
    "L4": 5018,
    "L6": 501182,
    "IsActive": true
  },
  {
    "StoreId": 176,
    "Code": "1322",
    "Street": "ul. Łotewska 2",
    "City": "Tarnowskie Góry"
  },
  {
    "StoreId": 177,
    "Code": "1323",
    "Street": "ul. Pachońskiego 8",
    "City": "Kraków",
    "Latitude": 50.09416200,
    "Longitude": 19.92792800,
    "L4": 5020,
    "L6": 501199,
    "IsActive": true
  },
  {
    "StoreId": 178,
    "Code": "1324",
    "Street": "ul. Kosynierów 2",
    "City": "Świdnik",
    "Latitude": 51.22034800,
    "Longitude": 22.71292700,
    "L4": 5123,
    "L6": 512227,
    "IsActive": true
  },
  {
    "StoreId": 179,
    "Code": "1325",
    "Street": "Os. Różane 23",
    "City": "Dzierżoniów",
    "Latitude": 50.74023000,
    "Longitude": 16.65432300,
    "L4": 5117,
    "L6": 507167,
    "IsActive": true
  },
  {
    "StoreId": 180,
    "Code": "1326",
    "Street": "ul. Jeleniogórska 41",
    "City": "Świerzawa",
    "Latitude": 51.01169900,
    "Longitude": 15.90115100,
    "L4": 5116,
    "L6": 510159,
    "IsActive": true
  },
  {
    "StoreId": 181,
    "Code": "1327",
    "Street": "ul. Goszczyńskiego 17",
    "City": "Sosnowiec",
    "Latitude": 50.29482600,
    "Longitude": 19.16149200,
    "L4": 5019,
    "L6": 503192,
    "IsActive": true
  },
  {
    "StoreId": 182,
    "Code": "1329",
    "Street": "ul. Gogola 10",
    "City": "Łódź",
    "Latitude": 51.75785400,
    "Longitude": 19.54380500,
    "L4": 5220,
    "L6": 518195,
    "IsActive": true
  },
  {
    "StoreId": 183,
    "Code": "1330",
    "Street": "ul. Wojska Polskiego 29",
    "City": "Świdwin",
    "Latitude": 53.77330100,
    "Longitude": 15.77200400,
    "L4": 5416,
    "L6": 538158,
    "IsActive": true
  },
  {
    "StoreId": 184,
    "Code": "1331",
    "Street": "ul. Solarza 19a",
    "City": "Rzeszów"
  },
  {
    "StoreId": 185,
    "Code": "1332",
    "Street": "ul. Konradowska 4",
    "City": "Wschowa",
    "Latitude": 51.80084300,
    "Longitude": 16.31295700,
    "L4": 5216,
    "L6": 518163,
    "IsActive": true
  },
  {
    "StoreId": 186,
    "Code": "1333",
    "Street": "ul. Orląt Lwowskich 70",
    "City": "Warszawa",
    "Latitude": 52.19155500,
    "Longitude": 20.86198100,
    "L4": 5221,
    "L6": 522209,
    "IsActive": true
  },
  {
    "StoreId": 187,
    "Code": "1335",
    "Street": "ul. Wiejska 1",
    "City": "Cieszyn",
    "Latitude": 49.75652700,
    "Longitude": 18.63998600,
    "L4": 5019,
    "L6": 498186,
    "IsActive": true
  },
  {
    "StoreId": 188,
    "Code": "1337",
    "Street": "Al. Bohaterów Warszawy 34/35",
    "City": "Szczecin",
    "Latitude": 53.42899100,
    "Longitude": 14.53110300,
    "L4": 5315,
    "L6": 534145,
    "IsActive": true
  },
  {
    "StoreId": 189,
    "Code": "1342",
    "Street": "ul. Młynarska 41",
    "City": "Kalisz"
  },
  {
    "StoreId": 190,
    "Code": "1347",
    "Street": "ul. Grudziądzka 6",
    "City": "Chełmno",
    "Latitude": 53.34947900,
    "Longitude": 18.42474900,
    "L4": 5318,
    "L6": 533184,
    "IsActive": true
  },
  {
    "StoreId": 191,
    "Code": "1349",
    "Street": "Al. J. Piłsudskiego 1",
    "City": "Jaworzno",
    "Latitude": 50.21152100,
    "Longitude": 19.25193400,
    "L4": 5019,
    "L6": 502193,
    "IsActive": true
  },
  {
    "StoreId": 192,
    "Code": "1350",
    "Street": "ul. Wybickiego 18",
    "City": "Kraków",
    "Latitude": 50.08425000,
    "Longitude": 19.92518100,
    "L4": 5020,
    "L6": 501199,
    "IsActive": true
  },
  {
    "StoreId": 193,
    "Code": "1351",
    "Street": "Os. Czecha 73",
    "City": "Poznań",
    "Latitude": 52.38628300,
    "Longitude": 16.97740100,
    "L4": 5217,
    "L6": 524170,
    "IsActive": true
  },
  {
    "StoreId": 194,
    "Code": "1356",
    "Street": "ul. Wólczańska 128/132",
    "City": "Łódź",
    "Latitude": 51.75726100,
    "Longitude": 19.45491200,
    "L4": 5219,
    "L6": 518195,
    "IsActive": true
  },
  {
    "StoreId": 195,
    "Code": "1357",
    "Street": "ul. Okrzei 10",
    "City": "Olsztyn",
    "Latitude": 53.78494400,
    "Longitude": 20.48872700,
    "L4": 5420,
    "L6": 538205,
    "IsActive": true
  },
  {
    "StoreId": 196,
    "Code": "1359",
    "Street": "ul. Zamoyskiego 26",
    "City": "Janów Lubelski",
    "Latitude": 50.70533600,
    "Longitude": 22.41184500,
    "L4": 5122,
    "L6": 507224,
    "IsActive": true
  },
  {
    "StoreId": 197,
    "Code": "1363",
    "Street": "ul. Wojsławicka 6",
    "City": "Chełm",
    "Latitude": 51.12551800,
    "Longitude": 23.48218800,
    "L4": 5123,
    "L6": 511235,
    "IsActive": true
  },
  {
    "StoreId": 198,
    "Code": "1364",
    "Street": "ul. Nałęczowska 24",
    "City": "Lublin",
    "Latitude": 51.24896200,
    "Longitude": 22.51330200,
    "L4": 5123,
    "L6": 512225,
    "IsActive": true
  },
  {
    "StoreId": 199,
    "Code": "1365",
    "Street": "ul. Szobera 3A",
    "City": "Warszawa",
    "Latitude": 52.23612400,
    "Longitude": 20.89856200,
    "L4": 5221,
    "L6": 522209,
    "IsActive": true
  },
  {
    "StoreId": 200,
    "Code": "1366",
    "Street": "ul. Żabia 7",
    "City": "Barlinek",
    "Latitude": 52.99087000,
    "Longitude": 15.21259100,
    "L4": 5315,
    "L6": 530152,
    "IsActive": true
  },
  {
    "StoreId": 201,
    "Code": "1369",
    "Street": "Pl. Dąbrowskiego 1",
    "City": "Ustka",
    "Latitude": 54.58267700,
    "Longitude": 16.86816600,
    "L4": 5517,
    "L6": 546169,
    "IsActive": true
  },
  {
    "StoreId": 202,
    "Code": "1376",
    "Street": "ul. Kaźmierczaka 29",
    "City": "Kościan",
    "Latitude": 52.08172700,
    "Longitude": 16.62625600,
    "L4": 5217,
    "L6": 521166,
    "IsActive": true
  },
  {
    "StoreId": 203,
    "Code": "1379",
    "Street": "ul. Warszawska 19",
    "City": "Warka",
    "Latitude": 51.78416700,
    "Longitude": 21.18467900,
    "L4": 5221,
    "L6": 518212,
    "IsActive": true
  },
  {
    "StoreId": 204,
    "Code": "1381",
    "Street": "ul. Kilińskiego 11",
    "City": "Ełk",
    "Latitude": 53.81322700,
    "Longitude": 22.35959500,
    "L4": 5422,
    "L6": 538224,
    "IsActive": true
  },
  {
    "StoreId": 205,
    "Code": "1384",
    "Street": "ul. św. M. Kolbego 58",
    "City": "Bydgoszcz",
    "Latitude": 53.15895900,
    "Longitude": 17.91258900,
    "L4": 5318,
    "L6": 532179,
    "IsActive": true
  },
  {
    "StoreId": 206,
    "Code": "1385",
    "Street": "ul. 1-go Maja 22",
    "City": "Pyrzyce"
  },
  {
    "StoreId": 207,
    "Code": "1386",
    "Street": "ul. Jana Olbrachta 46",
    "City": "Warszawa",
    "Latitude": 52.23568600,
    "Longitude": 20.93758100,
    "L4": 5221,
    "L6": 522209,
    "IsActive": true
  },
  {
    "StoreId": 208,
    "Code": "1387",
    "Street": "ul. Paderewskiego 17",
    "City": "Radom",
    "Latitude": 51.41849900,
    "Longitude": 21.16538200,
    "L4": 5121,
    "L6": 514212,
    "IsActive": true
  },
  {
    "StoreId": 209,
    "Code": "1388",
    "Street": "ul. Sikorskiego 57",
    "City": "Trzcianka",
    "Latitude": 53.03452000,
    "Longitude": 16.46993900,
    "L4": 5316,
    "L6": 530165,
    "IsActive": true
  },
  {
    "StoreId": 210,
    "Code": "1389",
    "Street": "ul. Getta Żydowskiego 29",
    "City": "Zduńska Wola",
    "Latitude": 51.60658000,
    "Longitude": 18.92949100,
    "L4": 5219,
    "L6": 516189,
    "IsActive": true
  },
  {
    "StoreId": 211,
    "Code": "1392",
    "Street": "ul. Jana Pawła II 1a",
    "City": "Kutno",
    "Latitude": 52.23155800,
    "Longitude": 19.36568600,
    "L4": 5219,
    "L6": 522194,
    "IsActive": true
  },
  {
    "StoreId": 212,
    "Code": "1393",
    "Street": "Pl. Dąbrowskiego 3",
    "City": "Słupsk",
    "Latitude": 54.46342800,
    "Longitude": 17.02138300,
    "L4": 5417,
    "L6": 545170,
    "IsActive": true
  },
  {
    "StoreId": 213,
    "Code": "1394",
    "Street": "ul. Pomarańczowa 9",
    "City": "Szczecin",
    "Latitude": 53.36832800,
    "Longitude": 14.65401500,
    "L4": 5315,
    "L6": 534147,
    "IsActive": true
  },
  {
    "StoreId": 214,
    "Code": "1395",
    "Street": "ul. Heleny 18",
    "City": "Kraków",
    "Latitude": 50.01212000,
    "Longitude": 20.02098700,
    "L4": 5020,
    "L6": 500200,
    "IsActive": true
  },
  {
    "StoreId": 215,
    "Code": "1396",
    "Street": "ul. Jana Nowaka Jeziorańskiego 71",
    "City": "Kielce",
    "Latitude": 50.88981400,
    "Longitude": 20.66763500,
    "L4": 5121,
    "L6": 509207,
    "IsActive": true
  },
  {
    "StoreId": 216,
    "Code": "1397",
    "Street": "ul. Jedności 4",
    "City": "Gliwice",
    "Latitude": 50.28598900,
    "Longitude": 18.72866700,
    "L4": 5019,
    "L6": 503187,
    "IsActive": true
  },
  {
    "StoreId": 217,
    "Code": "1399",
    "Street": "ul. J. Korczaka 7",
    "City": "Garwolin",
    "Latitude": 51.90107400,
    "Longitude": 21.60647900,
    "L4": 5222,
    "L6": 519216,
    "IsActive": true
  },
  {
    "StoreId": 218,
    "Code": "1402",
    "Street": "ul. Franciszka Żwirki 48",
    "City": "Tczew",
    "Latitude": 54.09672400,
    "Longitude": 18.76712200,
    "L4": 5419,
    "L6": 541188,
    "IsActive": true
  },
  {
    "StoreId": 219,
    "Code": "1403",
    "Street": "al. Legionów 58a",
    "City": "Łomża"
  },
  {
    "StoreId": 220,
    "Code": "1404",
    "Street": "ul. Ofiar Katynia 15",
    "City": "Rzeszów",
    "Latitude": 50.05299500,
    "Longitude": 21.97714200,
    "L4": 5022,
    "L6": 501220,
    "IsActive": true
  },
  {
    "StoreId": 221,
    "Code": "1405",
    "Street": "ul. Poznańska 4",
    "City": "Jelenia Góra"
  },
  {
    "StoreId": 222,
    "Code": "1406",
    "Street": "Os. XX-lecia 16",
    "City": "Ząbkowice Śląskie"
  },
  {
    "StoreId": 223,
    "Code": "1407",
    "Street": "ul. Sosnowa 7",
    "City": "Przasnysz",
    "Latitude": 53.02598600,
    "Longitude": 20.88990900,
    "L4": 5321,
    "L6": 530209,
    "IsActive": true
  },
  {
    "StoreId": 224,
    "Code": "1408",
    "Street": "ul. Nowy Rynek 16",
    "City": "Rypin",
    "Latitude": 53.06541400,
    "Longitude": 19.41318700,
    "L4": 5319,
    "L6": 531194,
    "IsActive": true
  },
  {
    "StoreId": 225,
    "Code": "1409",
    "Street": "ul. Narutowicza 1",
    "City": "Aleksandrów Kujawski"
  },
  {
    "StoreId": 226,
    "Code": "1410",
    "Street": "ul. Kniaźnina 1",
    "City": "Kraków"
  },
  {
    "StoreId": 227,
    "Code": "1412",
    "Street": "ul. F. Kleeberga 2d",
    "City": "Bydgoszcz",
    "Latitude": 53.15191000,
    "Longitude": 18.14586100,
    "L4": 5318,
    "L6": 532181,
    "IsActive": true
  },
  {
    "StoreId": 228,
    "Code": "1413",
    "Street": "ul. Wolności 42",
    "City": "Słupsk"
  },
  {
    "StoreId": 229,
    "Code": "1414",
    "Street": "Pl. Paderewskiego 13",
    "City": "Złotów"
  },
  {
    "StoreId": 230,
    "Code": "1415",
    "Street": "ul. Kąkolowa 1",
    "City": "Bydgoszcz",
    "Latitude": 53.10412600,
    "Longitude": 18.04495100,
    "L4": 5318,
    "L6": 531180,
    "IsActive": true
  },
  {
    "StoreId": 231,
    "Code": "1416",
    "Street": "ul. Dworcowa 14",
    "City": "Kartuzy",
    "Latitude": 54.33403000,
    "Longitude": 18.20411500,
    "L4": 5418,
    "L6": 543182,
    "IsActive": true
  },
  {
    "StoreId": 232,
    "Code": "1418",
    "Street": "ul. Kolejowa 6",
    "City": "Chojnów",
    "Latitude": 51.27400800,
    "Longitude": 15.93627600,
    "L4": 5116,
    "L6": 513159,
    "IsActive": true
  },
  {
    "StoreId": 233,
    "Code": "1419",
    "Street": "ul. Chorzowska 44B",
    "City": "Gliwice",
    "Latitude": 50.29883500,
    "Longitude": 18.70328700,
    "L4": 5019,
    "L6": 503187,
    "IsActive": true
  },
  {
    "StoreId": 234,
    "Code": "1420",
    "Street": "Pl. Targowy 1",
    "City": "Strzelce Opolskie",
    "Latitude": 50.50967600,
    "Longitude": 18.30743000,
    "L4": 5118,
    "L6": 505183,
    "IsActive": true
  },
  {
    "StoreId": 235,
    "Code": "1421",
    "Street": "ul. Rejtana 51",
    "City": "Rzeszów",
    "Latitude": 50.02302400,
    "Longitude": 22.01819700,
    "L4": 5022,
    "L6": 500220,
    "IsActive": true
  },
  {
    "StoreId": 236,
    "Code": "1425",
    "Street": "ul. Tuwima 3",
    "City": "Łódź",
    "Latitude": 51.76559100,
    "Longitude": 19.45833600,
    "L4": 5219,
    "L6": 518195,
    "IsActive": true
  },
  {
    "StoreId": 237,
    "Code": "1426",
    "Street": "ul. Brzeska 31",
    "City": "Międzyrzec Podlaski",
    "Latitude": 51.98580900,
    "Longitude": 22.78938600,
    "L4": 5223,
    "L6": 520228,
    "IsActive": true
  },
  {
    "StoreId": 238,
    "Code": "1427",
    "Street": "ul. Warszawska 75B",
    "City": "Wieruszów",
    "Latitude": 51.29523400,
    "Longitude": 18.16086000,
    "L4": 5118,
    "L6": 513182,
    "IsActive": true
  },
  {
    "StoreId": 239,
    "Code": "1428",
    "Street": "ul. Jana Pawła II 30",
    "City": "Sieradz",
    "Latitude": 51.59112300,
    "Longitude": 18.72559400,
    "L4": 5219,
    "L6": 516187,
    "IsActive": true
  },
  {
    "StoreId": 240,
    "Code": "1429",
    "Street": "ul. Wyszyńskiego 21",
    "City": "Białystok",
    "Latitude": 53.12993700,
    "Longitude": 23.14317700,
    "L4": 5323,
    "L6": 531231,
    "IsActive": true
  },
  {
    "StoreId": 241,
    "Code": "1430",
    "Street": "ul. Grunwaldzka 41",
    "City": "Ostróda",
    "Latitude": 53.69332700,
    "Longitude": 19.97784400,
    "L4": 5420,
    "L6": 537200,
    "IsActive": true
  },
  {
    "StoreId": 242,
    "Code": "1431",
    "Street": "ul. Świetlików 9",
    "City": "Warszawa",
    "Latitude": 52.22816900,
    "Longitude": 20.91051400,
    "L4": 5221,
    "L6": 522209,
    "IsActive": true
  },
  {
    "StoreId": 243,
    "Code": "1433",
    "Street": "ul. Kłodzka 3",
    "City": "Polanica-Zdrój",
    "Latitude": 50.40579700,
    "Longitude": 16.51319300,
    "L4": 5017,
    "L6": 504165,
    "IsActive": true
  },
  {
    "StoreId": 244,
    "Code": "1434",
    "Street": "ul. Sienkiewicza 15",
    "City": "Grodzisk Mazowiecki"
  },
  {
    "StoreId": 245,
    "Code": "1436",
    "Street": "ul. 1 Maja 95b",
    "City": "Rybnik",
    "Latitude": 50.07156500,
    "Longitude": 18.54870600,
    "L4": 5019,
    "L6": 501185,
    "IsActive": true
  },
  {
    "StoreId": 246,
    "Code": "1437",
    "Street": "ul. Karpia 1",
    "City": "Szczecin",
    "Latitude": 53.36894300,
    "Longitude": 14.59844800,
    "L4": 5315,
    "L6": 534146,
    "IsActive": true
  },
  {
    "StoreId": 247,
    "Code": "1440",
    "Street": "Os. Jagiellońskie 19",
    "City": "Kraków",
    "Latitude": 50.08450500,
    "Longitude": 20.02744100,
    "L4": 5020,
    "L6": 501200,
    "IsActive": true
  },
  {
    "StoreId": 248,
    "Code": "1441",
    "Street": "ul. Meissnera 22",
    "City": "Kielce",
    "Latitude": 50.88131200,
    "Longitude": 20.59395200,
    "L4": 5121,
    "L6": 509206,
    "IsActive": true
  },
  {
    "StoreId": 249,
    "Code": "1446",
    "Street": "ul. Okrężna 14",
    "City": "Sulechów",
    "Latitude": 52.08360100,
    "Longitude": 15.62459500,
    "L4": 5216,
    "L6": 521156,
    "IsActive": true
  },
  {
    "StoreId": 250,
    "Code": "1447",
    "Street": "ul. Plac Evry 1",
    "City": "Nowy Targ",
    "Latitude": 49.47210600,
    "Longitude": 20.03076300,
    "L4": 4920,
    "L6": 495200,
    "IsActive": true
  },
  {
    "StoreId": 251,
    "Code": "1452",
    "Street": "ul. Sobieskiego 5",
    "City": "Bydgoszcz",
    "Latitude": 53.13313400,
    "Longitude": 17.99211700,
    "L4": 5318,
    "L6": 531180,
    "IsActive": true
  },
  {
    "StoreId": 252,
    "Code": "1453",
    "Street": "ul. Bema 9",
    "City": "Gostynin",
    "Latitude": 52.43210300,
    "Longitude": 19.46590100,
    "L4": 5219,
    "L6": 524195,
    "IsActive": true
  },
  {
    "StoreId": 253,
    "Code": "1456",
    "Street": "ul. Żwirki i Wigury 62",
    "City": "Gliwice",
    "Latitude": 50.28121500,
    "Longitude": 18.67053500,
    "L4": 5019,
    "L6": 503187,
    "IsActive": true
  },
  {
    "StoreId": 254,
    "Code": "1457",
    "Street": "ul. Mościckiego 13",
    "City": "Gorzów Wlkp.",
    "Latitude": 52.73931400,
    "Longitude": 15.22134100,
    "L4": 5315,
    "L6": 527152,
    "IsActive": true
  },
  {
    "StoreId": 255,
    "Code": "1458",
    "Street": "ul. Jana Pawła II 15a",
    "City": "Koszalin",
    "Latitude": 54.20455700,
    "Longitude": 16.19254800,
    "L4": 5416,
    "L6": 542162,
    "IsActive": true
  },
  {
    "StoreId": 256,
    "Code": "1459",
    "Street": "ul. Czyżewskiego 1",
    "City": "Bełchatów",
    "Latitude": 51.36662600,
    "Longitude": 19.37791600,
    "L4": 5119,
    "L6": 514194,
    "IsActive": true
  },
  {
    "StoreId": 257,
    "Code": "1461",
    "Street": "ul. Wojska Polskiego 118",
    "City": "Piotrków Trybunalski"
  },
  {
    "StoreId": 258,
    "Code": "1462",
    "Street": "Osiedle Dolnośląskie 341a",
    "City": "Bełchatów",
    "Latitude": 51.35510800,
    "Longitude": 19.35613800,
    "L4": 5119,
    "L6": 514194,
    "IsActive": true
  },
  {
    "StoreId": 259,
    "Code": "1465",
    "Street": "ul. Warszawska 13",
    "City": "Końskie",
    "Latitude": 51.19229600,
    "Longitude": 20.40708700,
    "L4": 5120,
    "L6": 512204,
    "IsActive": true
  },
  {
    "StoreId": 260,
    "Code": "1466",
    "Street": "ul. Korzenna 19/4",
    "City": "Gdynia",
    "Latitude": 54.47035700,
    "Longitude": 18.50110700,
    "L4": 5419,
    "L6": 545185,
    "IsActive": true
  },
  {
    "StoreId": 261,
    "Code": "1468",
    "Street": "ul. Małachowskiego 29",
    "City": "Będzin",
    "Latitude": 50.32146700,
    "Longitude": 19.13480900,
    "L4": 5019,
    "L6": 503191,
    "IsActive": true
  },
  {
    "StoreId": 262,
    "Code": "1470",
    "Street": "ul. Wyszyńskiego 1",
    "City": "Zielona Góra",
    "Latitude": 51.92743500,
    "Longitude": 15.49411300,
    "L4": 5215,
    "L6": 519155,
    "IsActive": true
  },
  {
    "StoreId": 263,
    "Code": "1471",
    "Street": "ul. Bydgoska 9",
    "City": "Wągrowiec",
    "Latitude": 52.80774500,
    "Longitude": 17.20224500,
    "L4": 5317,
    "L6": 528172,
    "IsActive": true
  },
  {
    "StoreId": 264,
    "Code": "1472",
    "Street": "ul. Krakowska 32",
    "City": "Jarosław",
    "Latitude": 50.01963900,
    "Longitude": 22.65797200,
    "L4": 5023,
    "L6": 500227,
    "IsActive": true
  },
  {
    "StoreId": 265,
    "Code": "1477",
    "Street": "ul. Jerzmanowskiego 12a",
    "City": "Kraków",
    "Latitude": 50.01743500,
    "Longitude": 20.01030000,
    "L4": 5020,
    "L6": 500200,
    "IsActive": true
  },
  {
    "StoreId": 266,
    "Code": "1478",
    "Street": "ul. Jana Pawła II 3",
    "City": "Stalowa Wola",
    "Latitude": 50.57043000,
    "Longitude": 22.06444900,
    "L4": 5122,
    "L6": 506221,
    "IsActive": true
  },
  {
    "StoreId": 267,
    "Code": "1479",
    "Street": "Os. Stawki 46",
    "City": "Ostrowiec Świętokrzyski",
    "Latitude": 50.94747900,
    "Longitude": 21.40455700,
    "L4": 5121,
    "L6": 509214,
    "IsActive": true
  },
  {
    "StoreId": 268,
    "Code": "1480",
    "Street": "ul. Pstrowskiego 1",
    "City": "Żagań",
    "Latitude": 51.61896000,
    "Longitude": 15.31557700,
    "L4": 5215,
    "L6": 516153,
    "IsActive": true
  },
  {
    "StoreId": 269,
    "Code": "1482",
    "Street": "ul. Okólna 5",
    "City": "Ostrowiec Świętokrzyski",
    "Latitude": 50.93931100,
    "Longitude": 21.38977100,
    "L4": 5121,
    "L6": 509214,
    "IsActive": true
  },
  {
    "StoreId": 270,
    "Code": "1483",
    "Street": "ul. Poselska 2",
    "City": "Aleksandrów Lódzki"
  },
  {
    "StoreId": 271,
    "Code": "1484",
    "Street": "ul. Kamienna 2",
    "City": "Piekary Śląskie",
    "Latitude": 50.39204900,
    "Longitude": 18.96552900,
    "L4": 5019,
    "L6": 504190,
    "IsActive": true
  },
  {
    "StoreId": 272,
    "Code": "1485",
    "Street": "ul. 3-Maja 1",
    "City": "Szamotuły",
    "Latitude": 52.60704800,
    "Longitude": 16.58403400,
    "L4": 5317,
    "L6": 526166,
    "IsActive": true
  },
  {
    "StoreId": 273,
    "Code": "1486",
    "Street": "ul. Jana Pawła II 15",
    "City": "Staszów",
    "Latitude": 50.56773900,
    "Longitude": 21.17247500,
    "L4": 5121,
    "L6": 506212,
    "IsActive": true
  },
  {
    "StoreId": 274,
    "Code": "1487",
    "Street": "ul. 1000-Lecia Państwa Polskiego 11",
    "City": "Wąbrzeźno",
    "Latitude": 53.28548900,
    "Longitude": 18.94367900,
    "L4": 5319,
    "L6": 533189,
    "IsActive": true
  },
  {
    "StoreId": 275,
    "Code": "1488",
    "Street": "ul. Trzmielowicka 7/9",
    "City": "Wrocław",
    "Latitude": 51.14451500,
    "Longitude": 16.86557700,
    "L4": 5117,
    "L6": 511169,
    "IsActive": true
  },
  {
    "StoreId": 276,
    "Code": "1489",
    "Street": "ul. Pomorska 58",
    "City": "Łódź",
    "Latitude": 51.77841200,
    "Longitude": 19.46923300,
    "L4": 5219,
    "L6": 518195,
    "IsActive": true
  },
  {
    "StoreId": 277,
    "Code": "1491",
    "Street": "ul. Konopnickiej 24a",
    "City": "Inowrocław",
    "Latitude": 52.79855700,
    "Longitude": 18.24699400,
    "L4": 5318,
    "L6": 528182,
    "IsActive": true
  },
  {
    "StoreId": 278,
    "Code": "1497",
    "Street": "ul. T. Kościuszki 25/27",
    "City": "Biłgoraj"
  },
  {
    "StoreId": 279,
    "Code": "1498",
    "Street": "ul. Asnyka 27",
    "City": "Legnica",
    "Latitude": 51.20211500,
    "Longitude": 16.14072400,
    "L4": 5116,
    "L6": 512161,
    "IsActive": true
  },
  {
    "StoreId": 280,
    "Code": "1502",
    "Street": "ul. Jana Pawła II 4",
    "City": "Reda",
    "Latitude": 54.60289400,
    "Longitude": 18.35355900,
    "L4": 5518,
    "L6": 546184,
    "IsActive": true
  },
  {
    "StoreId": 281,
    "Code": "1503",
    "Street": "ul. Długa 19-27",
    "City": "Czaplinek",
    "Latitude": 53.55953800,
    "Longitude": 16.23106300,
    "L4": 5416,
    "L6": 536162,
    "IsActive": true
  },
  {
    "StoreId": 282,
    "Code": "1504",
    "Street": "ul. Okólna 28a",
    "City": "Gorzów Wielkopolski",
    "Latitude": 52.73796800,
    "Longitude": 15.25329400,
    "L4": 5315,
    "L6": 527153,
    "IsActive": true
  },
  {
    "StoreId": 283,
    "Code": "1507",
    "Street": "ul. Lubelska 3a",
    "City": "Radzyń Podlaski",
    "Latitude": 51.77790800,
    "Longitude": 22.62282900,
    "L4": 5223,
    "L6": 518226,
    "IsActive": true
  },
  {
    "StoreId": 284,
    "Code": "1508",
    "Street": "ul. Krótka 9",
    "City": "Pobiedziska",
    "Latitude": 52.47798000,
    "Longitude": 17.27946400,
    "L4": 5217,
    "L6": 525173,
    "IsActive": true
  },
  {
    "StoreId": 285,
    "Code": "1509",
    "Street": "ul. Jasna 3",
    "City": "Nowa Dęba",
    "Latitude": 50.41370300,
    "Longitude": 21.75506000,
    "L4": 5022,
    "L6": 504218,
    "IsActive": true
  },
  {
    "StoreId": 286,
    "Code": "1510",
    "Street": "ul. Bolesława Chrobrego 40/42",
    "City": "Gryfino",
    "Latitude": 53.25521100,
    "Longitude": 14.48945000,
    "L4": 5314,
    "L6": 533145,
    "IsActive": true
  },
  {
    "StoreId": 287,
    "Code": "1512",
    "Street": "ul. Dwernickiego 9",
    "City": "Bydgoszcz",
    "Latitude": 53.13883800,
    "Longitude": 18.02395300,
    "L4": 5318,
    "L6": 531180,
    "IsActive": true
  },
  {
    "StoreId": 288,
    "Code": "1514",
    "Street": "ul. Beskidzka 30",
    "City": "Kraków",
    "Latitude": 50.01543900,
    "Longitude": 19.95109200,
    "L4": 5020,
    "L6": 500200,
    "IsActive": true
  },
  {
    "StoreId": 289,
    "Code": "1517",
    "Street": "ul. Siemieńskiego 14",
    "City": "Rzeszów",
    "Latitude": 50.04773100,
    "Longitude": 22.01165700,
    "L4": 5022,
    "L6": 500220,
    "IsActive": true
  },
  {
    "StoreId": 290,
    "Code": "1525",
    "Street": "ul. 1 Maja 11",
    "City": "Pajęczno",
    "Latitude": 51.14607200,
    "Longitude": 18.99957400,
    "L4": 5119,
    "L6": 511190,
    "IsActive": true
  },
  {
    "StoreId": 291,
    "Code": "1527",
    "Street": "ul. I Armii Wojska Polskiego 10",
    "City": "Bogatynia",
    "Latitude": 50.90160500,
    "Longitude": 14.96125900,
    "L4": 5115,
    "L6": 509150,
    "IsActive": true
  },
  {
    "StoreId": 292,
    "Code": "1529",
    "Street": "ul. Kętrzyńska 20",
    "City": "Bartoszyce",
    "Latitude": 54.25051800,
    "Longitude": 20.81426900,
    "L4": 5421,
    "L6": 543208,
    "IsActive": true
  },
  {
    "StoreId": 293,
    "Code": "1531",
    "Street": "ul. Spółdzielcza 82",
    "City": "Skarżysko-Kamienna",
    "Latitude": 51.12378100,
    "Longitude": 20.88064000,
    "L4": 5121,
    "L6": 511209,
    "IsActive": true
  },
  {
    "StoreId": 294,
    "Code": "1533",
    "Street": "ul. Sikorskiego 2",
    "City": "Chrzanów",
    "Latitude": 50.14418700,
    "Longitude": 19.41492800,
    "L4": 5019,
    "L6": 501194,
    "IsActive": true
  },
  {
    "StoreId": 295,
    "Code": "1534",
    "Street": "ul. Zaolszany 5",
    "City": "Pyskowice"
  },
  {
    "StoreId": 296,
    "Code": "1535",
    "Street": "ul. Węglowa 63",
    "City": "Czechowice-Dziedzice",
    "Latitude": 49.92929500,
    "Longitude": 19.00829400,
    "L4": 5019,
    "L6": 499190,
    "IsActive": true
  },
  {
    "StoreId": 297,
    "Code": "1537",
    "Street": "ul. Królowej Jadwigi 23",
    "City": "Dąbrowa Górnicza",
    "Latitude": 50.32449300,
    "Longitude": 19.19968600,
    "L4": 5019,
    "L6": 503192,
    "IsActive": true
  },
  {
    "StoreId": 298,
    "Code": "1538",
    "Street": "ul. Komandorska 147",
    "City": "Wrocław",
    "Latitude": 51.09339900,
    "Longitude": 17.02572000,
    "L4": 5117,
    "L6": 511170,
    "IsActive": true
  },
  {
    "StoreId": 299,
    "Code": "1539",
    "Street": "ul. Moniuszki 26",
    "City": "Sosnowiec",
    "Latitude": 50.28354300,
    "Longitude": 19.10727500,
    "L4": 5019,
    "L6": 503191,
    "IsActive": true
  },
  {
    "StoreId": 300,
    "Code": "1540",
    "Street": "ul. Jana III Sobieskiego",
    "City": "Kęty",
    "Latitude": 49.88177800,
    "Longitude": 19.21280200,
    "L4": 5019,
    "L6": 499192,
    "IsActive": true
  },
  {
    "StoreId": 301,
    "Code": "1541",
    "Street": "ul. Zagórnego 1",
    "City": "Będzin",
    "Latitude": 50.35091100,
    "Longitude": 19.08520800,
    "L4": 5019,
    "L6": 504191,
    "IsActive": true
  },
  {
    "StoreId": 302,
    "Code": "1542",
    "Street": "ul. Witosa 4",
    "City": "Knurów",
    "Latitude": 50.23661700,
    "Longitude": 18.65855500,
    "L4": 5019,
    "L6": 502187,
    "IsActive": true
  },
  {
    "StoreId": 303,
    "Code": "1543",
    "Street": "ul. Szczęść Boże 6",
    "City": "Zabrze",
    "Latitude": 50.30404300,
    "Longitude": 18.78490500,
    "L4": 5019,
    "L6": 503188,
    "IsActive": true
  },
  {
    "StoreId": 304,
    "Code": "1545",
    "Street": "ul. Jana Pawła II 3",
    "City": "Czerwionka-Leszczyny",
    "Latitude": 50.14698000,
    "Longitude": 18.68179000,
    "L4": 5019,
    "L6": 501187,
    "IsActive": true
  },
  {
    "StoreId": 305,
    "Code": "1546",
    "Street": "ul. Ludowa 3",
    "City": "Wołów",
    "Latitude": 51.33968500,
    "Longitude": 16.64529100,
    "L4": 5117,
    "L6": 513166,
    "IsActive": true
  },
  {
    "StoreId": 306,
    "Code": "1547",
    "Street": "ul. Braci Mieroszewskich 2",
    "City": "Sosnowiec",
    "Latitude": 50.28688600,
    "Longitude": 19.18004300,
    "L4": 5019,
    "L6": 503192,
    "IsActive": true
  },
  {
    "StoreId": 307,
    "Code": "1549",
    "Street": "ul. Piastowska 30A",
    "City": "Kędzierzyn-Koźle",
    "Latitude": 50.34003100,
    "Longitude": 18.13906800,
    "L4": 5018,
    "L6": 503181,
    "IsActive": true
  },
  {
    "StoreId": 308,
    "Code": "1550",
    "Street": "ul. Koźmińska 22a",
    "City": "Krotoszyn",
    "Latitude": 51.69733800,
    "Longitude": 17.43888800,
    "L4": 5217,
    "L6": 517174,
    "IsActive": true
  },
  {
    "StoreId": 309,
    "Code": "1551",
    "Street": "Al. Tysiąclecia 2",
    "City": "Lubartów",
    "Latitude": 51.45778800,
    "Longitude": 22.60863100,
    "L4": 5123,
    "L6": 515226,
    "IsActive": true
  },
  {
    "StoreId": 310,
    "Code": "1552",
    "Street": "ul. Dzieci Polskich 21/23",
    "City": "Tomaszów Mazowiecki"
  },
  {
    "StoreId": 311,
    "Code": "1553",
    "Street": "ul. Rynkowa 20",
    "City": "Siedlce",
    "Latitude": 52.17555000,
    "Longitude": 22.27411500,
    "L4": 5222,
    "L6": 522223,
    "IsActive": true
  },
  {
    "StoreId": 312,
    "Code": "1554",
    "Street": "ul. Sienkiewicza 53",
    "City": "Ostrołęka",
    "Latitude": 53.07380000,
    "Longitude": 21.56385100,
    "L4": 5322,
    "L6": 531216,
    "IsActive": true
  },
  {
    "StoreId": 313,
    "Code": "1555",
    "Street": "ul. Smolki 12a",
    "City": "Iława",
    "Latitude": 53.58357800,
    "Longitude": 19.56103200,
    "L4": 5420,
    "L6": 536196,
    "IsActive": true
  },
  {
    "StoreId": 314,
    "Code": "1557",
    "Street": "ul. Mrongowiusza 30",
    "City": "Olsztynek"
  },
  {
    "StoreId": 315,
    "Code": "1558",
    "Street": "ul. Żeromskiego 18",
    "City": "Szczytno",
    "Latitude": 53.56077800,
    "Longitude": 21.00100500,
    "L4": 5421,
    "L6": 536210,
    "IsActive": true
  },
  {
    "StoreId": 316,
    "Code": "1559",
    "Street": "ul. Chylońska 42A",
    "City": "Gdynia",
    "Latitude": 54.54061000,
    "Longitude": 18.47931100,
    "L4": 5518,
    "L6": 545185,
    "IsActive": true
  },
  {
    "StoreId": 317,
    "Code": "1560",
    "Street": "ul. Odrodzenia 10",
    "City": "Elbląg",
    "Latitude": 54.18691300,
    "Longitude": 19.39993700,
    "L4": 5419,
    "L6": 542194,
    "IsActive": true
  },
  {
    "StoreId": 318,
    "Code": "1561",
    "Street": "ul. W. Andersa 15",
    "City": "Wałcz",
    "Latitude": 53.26415700,
    "Longitude": 16.46000500,
    "L4": 5316,
    "L6": 533165,
    "IsActive": true
  },
  {
    "StoreId": 319,
    "Code": "1562",
    "Street": "ul. M. Curie-Skłodowskiej 34",
    "City": "Kościerzyna",
    "Latitude": 54.12161600,
    "Longitude": 17.96392000,
    "L4": 5418,
    "L6": 541180,
    "IsActive": true
  },
  {
    "StoreId": 320,
    "Code": "1565",
    "Street": "ul. Piłsudskiego 38",
    "City": "Skarżysko-Kamienna",
    "Latitude": 51.11603400,
    "Longitude": 20.86398200,
    "L4": 5121,
    "L6": 511209,
    "IsActive": true
  },
  {
    "StoreId": 321,
    "Code": "1566",
    "Street": "ul. Zielona 5",
    "City": "Koło"
  },
  {
    "StoreId": 322,
    "Code": "1567",
    "Street": "ul. Radzymińska 12",
    "City": "Białystok",
    "Latitude": 53.14612000,
    "Longitude": 23.15463600,
    "L4": 5323,
    "L6": 531232,
    "IsActive": true
  },
  {
    "StoreId": 323,
    "Code": "1568",
    "Street": "ul. Sienkiewicza 38",
    "City": "Ostrowiec Świętokrzyski",
    "Latitude": 50.94253800,
    "Longitude": 21.38191800,
    "L4": 5121,
    "L6": 509214,
    "IsActive": true
  },
  {
    "StoreId": 324,
    "Code": "1569",
    "Street": "ul. Wandy Panfil 1/3",
    "City": "Tomaszów Mazowiecki",
    "Latitude": 51.52290700,
    "Longitude": 20.01652400,
    "L4": 5220,
    "L6": 515200,
    "IsActive": true
  },
  {
    "StoreId": 325,
    "Code": "1570",
    "Street": "ul. Legionów Polskich 61",
    "City": "Żyrardów",
    "Latitude": 52.05364800,
    "Longitude": 20.43061800,
    "L4": 5220,
    "L6": 521204,
    "IsActive": true
  },
  {
    "StoreId": 326,
    "Code": "1571",
    "Street": "ul. J. Pułaskiego 54",
    "City": "Suwałki",
    "Latitude": 54.12057800,
    "Longitude": 22.94111200,
    "L4": 5423,
    "L6": 541229,
    "IsActive": true
  },
  {
    "StoreId": 327,
    "Code": "1573",
    "Street": "ul. Batorego 32",
    "City": "Otwock",
    "Latitude": 52.09987500,
    "Longitude": 21.25400900,
    "L4": 5221,
    "L6": 521213,
    "IsActive": true
  },
  {
    "StoreId": 328,
    "Code": "1574",
    "Street": "ul. Łabiszyńska 16",
    "City": "Warszawa",
    "Latitude": 52.29588400,
    "Longitude": 21.03386900,
    "L4": 5221,
    "L6": 523210,
    "IsActive": true
  },
  {
    "StoreId": 329,
    "Code": "1575",
    "Street": "ul. Zdrojowa 25",
    "City": "Ciechocinek",
    "Latitude": 52.87658000,
    "Longitude": 18.78812000,
    "L4": 5319,
    "L6": 529188,
    "IsActive": true
  },
  {
    "StoreId": 330,
    "Code": "1576",
    "Street": "ul. Dziewulskiego 43",
    "City": "Toruń",
    "Latitude": 53.02792700,
    "Longitude": 18.68029500,
    "L4": 5319,
    "L6": 530187,
    "IsActive": true
  },
  {
    "StoreId": 331,
    "Code": "1577",
    "Street": "ul. H. Sienkiewicza 18",
    "City": "Dąbrowa Górnicza",
    "Latitude": 50.32226400,
    "Longitude": 19.18022800,
    "L4": 5019,
    "L6": 503192,
    "IsActive": true
  },
  {
    "StoreId": 332,
    "Code": "1578",
    "Street": "ul. Krynicka 1",
    "City": "Wrocław",
    "Latitude": 51.08253700,
    "Longitude": 17.04587000,
    "L4": 5117,
    "L6": 511170,
    "IsActive": true
  },
  {
    "StoreId": 333,
    "Code": "1580",
    "Street": "ul. Jagiellońska 19",
    "City": "Legnica",
    "Latitude": 51.20725700,
    "Longitude": 16.15115200,
    "L4": 5116,
    "L6": 512162,
    "IsActive": true
  },
  {
    "StoreId": 334,
    "Code": "1582",
    "Street": "ul. Wolności 480",
    "City": "Zabrze",
    "Latitude": 50.29652000,
    "Longitude": 18.82672900,
    "L4": 5019,
    "L6": 503188,
    "IsActive": true
  },
  {
    "StoreId": 335,
    "Code": "1583",
    "Street": "ul. Grota Roweckiego 18a",
    "City": "Pabianice",
    "Latitude": 51.65716900,
    "Longitude": 19.37007000,
    "L4": 5219,
    "L6": 517194,
    "IsActive": true
  },
  {
    "StoreId": 336,
    "Code": "1584",
    "Street": "ul. Haszka 11",
    "City": "Łódź",
    "Latitude": 51.75382200,
    "Longitude": 19.52961100,
    "L4": 5220,
    "L6": 518195,
    "IsActive": true
  },
  {
    "StoreId": 337,
    "Code": "1586",
    "Street": "ul. Konstytucji 3 Maja 3",
    "City": "Rawa Mazowiecka",
    "Latitude": 51.76395400,
    "Longitude": 20.25643500,
    "L4": 5220,
    "L6": 518203,
    "IsActive": true
  },
  {
    "StoreId": 338,
    "Code": "1587",
    "Street": "ul. Ogrodowa 44",
    "City": "Pasłęk",
    "Latitude": 54.05791100,
    "Longitude": 19.66838700,
    "L4": 5420,
    "L6": 541197,
    "IsActive": true
  },
  {
    "StoreId": 339,
    "Code": "1588",
    "Street": "ul. S. Okrzei 11",
    "City": "Złocieniec",
    "Latitude": 53.53107300,
    "Longitude": 16.01416300,
    "L4": 5416,
    "L6": 535160,
    "IsActive": true
  },
  {
    "StoreId": 340,
    "Code": "1589",
    "Street": "ul. Kombatantów Polskich 12",
    "City": "Świdwin",
    "Latitude": 53.77398200,
    "Longitude": 15.77759000,
    "L4": 5416,
    "L6": 538158,
    "IsActive": true
  },
  {
    "StoreId": 341,
    "Code": "1590",
    "Street": "ul. Słowackiego 24",
    "City": "Ełk",
    "Latitude": 53.82079200,
    "Longitude": 22.35068900,
    "L4": 5422,
    "L6": 538224,
    "IsActive": true
  },
  {
    "StoreId": 342,
    "Code": "1591",
    "Street": "ul. Pionierów 3",
    "City": "Gorzów Wlkp.",
    "Latitude": 52.73118500,
    "Longitude": 15.24186800,
    "L4": 5315,
    "L6": 527152,
    "IsActive": true
  },
  {
    "StoreId": 343,
    "Code": "1592",
    "Street": "ul. Główna 24",
    "City": "Łapy",
    "Latitude": 52.99148700,
    "Longitude": 22.88136300,
    "L4": 5323,
    "L6": 530229,
    "IsActive": true
  },
  {
    "StoreId": 344,
    "Code": "1593",
    "Street": "ul. Krótka 2",
    "City": "Twardogóra"
  },
  {
    "StoreId": 345,
    "Code": "1595",
    "Street": "ul. Jana Pawła II 21",
    "City": "Tomaszów Lubelski",
    "Latitude": 50.44928900,
    "Longitude": 23.41398700,
    "L4": 5023,
    "L6": 504234,
    "IsActive": true
  },
  {
    "StoreId": 346,
    "Code": "1596",
    "Street": "ul. Starogardzka 1",
    "City": "Straszyn",
    "Latitude": 54.27790900,
    "Longitude": 18.58995100,
    "L4": 5419,
    "L6": 543186,
    "IsActive": true
  },
  {
    "StoreId": 347,
    "Code": "1597",
    "Street": "ul. Słowackiego 4",
    "City": "Kwidzyn",
    "Latitude": 53.72958600,
    "Longitude": 18.93623000,
    "L4": 5419,
    "L6": 537189,
    "IsActive": true
  },
  {
    "StoreId": 348,
    "Code": "1598",
    "Street": "ul. Chełmińska 117",
    "City": "Grudziądz",
    "Latitude": 53.47124700,
    "Longitude": 18.74560500,
    "L4": 5319,
    "L6": 535187,
    "IsActive": true
  },
  {
    "StoreId": 349,
    "Code": "1599",
    "Street": "ul. Mickiewicza 103",
    "City": "Lubaczów",
    "Latitude": 50.16484500,
    "Longitude": 23.12170700,
    "L4": 5023,
    "L6": 502231,
    "IsActive": true
  },
  {
    "StoreId": 350,
    "Code": "1608",
    "Street": "ul. Lipowa 7",
    "City": "Myślibórz",
    "Latitude": 52.92648100,
    "Longitude": 14.87447000,
    "L4": 5315,
    "L6": 529149,
    "IsActive": true
  },
  {
    "StoreId": 351,
    "Code": "1612",
    "Street": "ul. Tarnowskiego 3",
    "City": "Kołobrzeg",
    "Latitude": 54.17666300,
    "Longitude": 15.59948300,
    "L4": 5416,
    "L6": 542156,
    "IsActive": true
  },
  {
    "StoreId": 352,
    "Code": "1614",
    "Street": "ul. Na Tamie 7",
    "City": "Niepołomice",
    "Latitude": 50.04157000,
    "Longitude": 20.22034600,
    "L4": 5020,
    "L6": 500202,
    "IsActive": true
  },
  {
    "StoreId": 353,
    "Code": "1620",
    "Street": "ul. Modrzewskiego 4",
    "City": "Brzeziny",
    "Latitude": 51.80226900,
    "Longitude": 19.75622400,
    "L4": 5220,
    "L6": 518198,
    "IsActive": true
  },
  {
    "StoreId": 354,
    "Code": "1621",
    "Street": "ul. Mszczonowska 37",
    "City": "Skierniewice",
    "Latitude": 51.95560000,
    "Longitude": 20.15381000,
    "L4": 5220,
    "L6": 520202,
    "IsActive": true
  },
  {
    "StoreId": 355,
    "Code": "1624",
    "Street": "ul. Bytomska 69",
    "City": "Piekary Śląskie",
    "Latitude": 50.37439400,
    "Longitude": 18.94374000,
    "L4": 5019,
    "L6": 504189,
    "IsActive": true
  },
  {
    "StoreId": 356,
    "Code": "1628",
    "Street": "ul. Grunwaldzka 8",
    "City": "Bydgoszcz",
    "Latitude": 53.12660000,
    "Longitude": 17.98636400,
    "L4": 5318,
    "L6": 531180,
    "IsActive": true
  },
  {
    "StoreId": 357,
    "Code": "1630",
    "Street": "ul. Wróblewskiego 1",
    "City": "Morąg",
    "Latitude": 53.90774700,
    "Longitude": 19.93786000,
    "L4": 5420,
    "L6": 539199,
    "IsActive": true
  },
  {
    "StoreId": 358,
    "Code": "1633",
    "Street": "ul. Lipowa 5",
    "City": "Lidzbark Warmiński",
    "Latitude": 54.12768900,
    "Longitude": 20.57579300,
    "L4": 5421,
    "L6": 541206,
    "IsActive": true
  },
  {
    "StoreId": 359,
    "Code": "1638",
    "Street": "ul. Palisadowa 53",
    "City": "Wałbrzych",
    "Latitude": 50.82758000,
    "Longitude": 16.27935000,
    "L4": 5116,
    "L6": 508163,
    "IsActive": true
  },
  {
    "StoreId": 360,
    "Code": "1640",
    "Street": "Pl. Wolności 14",
    "City": "Ożarów",
    "Latitude": 50.88749900,
    "Longitude": 21.66535500,
    "L4": 5122,
    "L6": 509217,
    "IsActive": true
  },
  {
    "StoreId": 361,
    "Code": "1643",
    "Street": "ul. Wojska Polskiego 46",
    "City": "Kolno",
    "Latitude": 53.41291200,
    "Longitude": 21.92203000,
    "L4": 5322,
    "L6": 534219,
    "IsActive": true
  },
  {
    "StoreId": 362,
    "Code": "1645",
    "Street": "ul. Narutowicza 4",
    "City": "Piotrków Trybunalski",
    "Latitude": 51.40780300,
    "Longitude": 19.69237400,
    "L4": 5120,
    "L6": 514197,
    "IsActive": true
  },
  {
    "StoreId": 363,
    "Code": "1648",
    "Street": "ul. Kościuszki 2",
    "City": "Zelów",
    "Latitude": 51.46469800,
    "Longitude": 19.21771100,
    "L4": 5119,
    "L6": 515192,
    "IsActive": true
  },
  {
    "StoreId": 364,
    "Code": "1649",
    "Street": "ul. Cieszkowskiego 5/7",
    "City": "Swarzędz",
    "Latitude": 52.41030400,
    "Longitude": 17.08405600,
    "L4": 5217,
    "L6": 524171,
    "IsActive": true
  },
  {
    "StoreId": 365,
    "Code": "1650",
    "Street": "ul. Pułaskiego 8",
    "City": "Myszków"
  },
  {
    "StoreId": 366,
    "Code": "1652",
    "Street": "ul. Legionów Polskich 6",
    "City": "Przysucha",
    "Latitude": 51.35669300,
    "Longitude": 20.63122700,
    "L4": 5121,
    "L6": 514206,
    "IsActive": true
  },
  {
    "StoreId": 367,
    "Code": "1654",
    "Street": "ul. Królewiecka 8",
    "City": "Gołdap",
    "Latitude": 54.30546400,
    "Longitude": 22.30353500,
    "L4": 5422,
    "L6": 543223,
    "IsActive": true
  },
  {
    "StoreId": 368,
    "Code": "1655",
    "Street": "ul. Zawierciańska 8",
    "City": "Klucze",
    "Latitude": 50.33732600,
    "Longitude": 19.56321200,
    "L4": 5020,
    "L6": 503196,
    "IsActive": true
  },
  {
    "StoreId": 369,
    "Code": "1657",
    "Street": "ul. Łużycka 33a",
    "City": "Świebodzin",
    "Latitude": 52.24117200,
    "Longitude": 15.53251900,
    "L4": 5216,
    "L6": 522155,
    "IsActive": true
  },
  {
    "StoreId": 370,
    "Code": "1658",
    "Street": "ul. Wysockiego 10",
    "City": "Warszawa",
    "Latitude": 52.28769300,
    "Longitude": 21.02228500,
    "L4": 5221,
    "L6": 523210,
    "IsActive": true
  },
  {
    "StoreId": 371,
    "Code": "1659",
    "Street": "ul. Kazimierza Wielkiego 101",
    "City": "Głogów"
  },
  {
    "StoreId": 372,
    "Code": "1663",
    "Street": "ul. Aleja 3 Maja 9",
    "City": "Zakopane",
    "Latitude": 49.29308400,
    "Longitude": 19.95811500,
    "L4": 4920,
    "L6": 493200,
    "IsActive": true
  },
  {
    "StoreId": 373,
    "Code": "1664",
    "Street": "ul. Fabryczna 9",
    "City": "Skoczów",
    "Latitude": 49.80177400,
    "Longitude": 18.79014700,
    "L4": 5019,
    "L6": 498188,
    "IsActive": true
  },
  {
    "StoreId": 374,
    "Code": "1666",
    "Street": "ul. Karczówkowska 1",
    "City": "Kielce",
    "Latitude": 50.86769000,
    "Longitude": 20.62084600,
    "L4": 5121,
    "L6": 509206,
    "IsActive": true
  },
  {
    "StoreId": 375,
    "Code": "1667",
    "Street": "ul. Sapiehy 2",
    "City": "Lublin",
    "Latitude": 51.25910100,
    "Longitude": 22.57092300,
    "L4": 5123,
    "L6": 513226,
    "IsActive": true
  },
  {
    "StoreId": 376,
    "Code": "1669",
    "Street": "ul. Grunwaldzka 6",
    "City": "Grodków",
    "Latitude": 50.69799400,
    "Longitude": 17.38654700,
    "L4": 5117,
    "L6": 507174,
    "IsActive": true
  },
  {
    "StoreId": 377,
    "Code": "1675",
    "Street": "ul. Strażacka 2",
    "City": "Mońki"
  },
  {
    "StoreId": 378,
    "Code": "1677",
    "Street": "ul. Dworcowa 35",
    "City": "Inowrocław",
    "Latitude": 52.80100800,
    "Longitude": 18.25274800,
    "L4": 5318,
    "L6": 528183,
    "IsActive": true
  },
  {
    "StoreId": 379,
    "Code": "1678",
    "Street": "ul. Międzyrzecka 72b",
    "City": "Łuków",
    "Latitude": 51.93302000,
    "Longitude": 22.38741400,
    "L4": 5222,
    "L6": 519224,
    "IsActive": true
  },
  {
    "StoreId": 380,
    "Code": "1679",
    "Street": "ul. Grunwaldzka 211",
    "City": "Gdańsk",
    "Latitude": 54.38987900,
    "Longitude": 18.59030500,
    "L4": 5419,
    "L6": 544186,
    "IsActive": true
  },
  {
    "StoreId": 381,
    "Code": "1680",
    "Street": "ul. Staszica 1",
    "City": "Wieleń",
    "Latitude": 52.89124600,
    "Longitude": 16.17038500,
    "L4": 5316,
    "L6": 529162,
    "IsActive": true
  },
  {
    "StoreId": 382,
    "Code": "1681",
    "Street": "ul. Dworcowa 10",
    "City": "Głogówek",
    "Latitude": 50.35143200,
    "Longitude": 17.87069000,
    "L4": 5018,
    "L6": 504179,
    "IsActive": true
  },
  {
    "StoreId": 383,
    "Code": "1682",
    "Street": "ul. Nadrzeczna 1",
    "City": "Siemiatycze",
    "Latitude": 52.42886000,
    "Longitude": 22.87022800,
    "L4": 5223,
    "L6": 524229,
    "IsActive": true
  },
  {
    "StoreId": 384,
    "Code": "1683",
    "Street": "ul. Powstańców Wielkopolskich 56",
    "City": "Bydgoszcz",
    "Latitude": 53.12987100,
    "Longitude": 18.03876500,
    "L4": 5318,
    "L6": 531180,
    "IsActive": true
  },
  {
    "StoreId": 385,
    "Code": "1684",
    "Street": "ul. Grunwaldzka 202/204",
    "City": "Jaworzno"
  },
  {
    "StoreId": 386,
    "Code": "1686",
    "Street": "ul. Główna 10",
    "City": "Janikowo",
    "Latitude": 52.75372700,
    "Longitude": 18.10892200,
    "L4": 5318,
    "L6": 528181,
    "IsActive": true
  },
  {
    "StoreId": 387,
    "Code": "1687",
    "Street": "ul. Witosa 17",
    "City": "Strzyżów",
    "Latitude": 49.86994700,
    "Longitude": 21.79934000,
    "L4": 5022,
    "L6": 499218,
    "IsActive": true
  },
  {
    "StoreId": 388,
    "Code": "1688",
    "Street": "ul. Ogrodowa 18",
    "City": "Łódź",
    "Latitude": 51.77835400,
    "Longitude": 19.44959300,
    "L4": 5219,
    "L6": 518194,
    "IsActive": true
  },
  {
    "StoreId": 389,
    "Code": "1689",
    "Street": "ul. Wilczyńskiego 4",
    "City": "Olsztyn",
    "Latitude": 53.74211300,
    "Longitude": 20.50377300,
    "L4": 5421,
    "L6": 537205,
    "IsActive": true
  },
  {
    "StoreId": 390,
    "Code": "1691",
    "Street": "ul. Grottgera 50",
    "City": "Śrem",
    "Latitude": 52.08531200,
    "Longitude": 17.00054100,
    "L4": 5217,
    "L6": 521170,
    "IsActive": true
  },
  {
    "StoreId": 391,
    "Code": "1693",
    "Street": "ul. Kilińskiego 4",
    "City": "Zgierz",
    "Latitude": 51.85391300,
    "Longitude": 19.41600000,
    "L4": 5219,
    "L6": 519194,
    "IsActive": true
  },
  {
    "StoreId": 392,
    "Code": "1694",
    "Street": "ul. Żeromskiego 11",
    "City": "Krapkowice",
    "Latitude": 50.48155800,
    "Longitude": 17.97849700,
    "L4": 5018,
    "L6": 505180,
    "IsActive": true
  },
  {
    "StoreId": 393,
    "Code": "1696",
    "Street": "ul. Wysłouchów 22a",
    "City": "Kraków",
    "Latitude": 50.00807500,
    "Longitude": 19.95847600,
    "L4": 5020,
    "L6": 500200,
    "IsActive": true
  },
  {
    "StoreId": 394,
    "Code": "1698",
    "Street": "ul. Rynek Stary 1/5",
    "City": "Ryki",
    "Latitude": 51.62683300,
    "Longitude": 21.93499800,
    "L4": 5222,
    "L6": 516219,
    "IsActive": true
  },
  {
    "StoreId": 395,
    "Code": "1699",
    "Street": "ul. Kilińskiego 4-4b",
    "City": "Oleśnica",
    "Latitude": 51.20860700,
    "Longitude": 17.38316200,
    "L4": 5117,
    "L6": 512174,
    "IsActive": true
  },
  {
    "StoreId": 396,
    "Code": "1701",
    "Street": "ul. Starowiejska 1",
    "City": "Radomsko",
    "Latitude": 51.05591300,
    "Longitude": 19.44970900,
    "L4": 5119,
    "L6": 511194,
    "IsActive": true
  },
  {
    "StoreId": 397,
    "Code": "1703",
    "Street": "ul. Stapinskiego 13",
    "City": "Ostróda",
    "Latitude": 53.70152300,
    "Longitude": 19.96300600,
    "L4": 5420,
    "L6": 537200,
    "IsActive": true
  },
  {
    "StoreId": 398,
    "Code": "1704",
    "Street": "ul. Kielecka 5a",
    "City": "Suchedniów",
    "Latitude": 51.05014700,
    "Longitude": 20.83099600,
    "L4": 5121,
    "L6": 511208,
    "IsActive": true
  },
  {
    "StoreId": 399,
    "Code": "1706",
    "Street": "ul. Szosa Chełmińska 164",
    "City": "Toruń",
    "Latitude": 53.03196800,
    "Longitude": 18.58903200,
    "L4": 5319,
    "L6": 530186,
    "IsActive": true
  },
  {
    "StoreId": 400,
    "Code": "1707",
    "Street": "ul. Bolesława Chrobrego 16a",
    "City": "Białystok",
    "Latitude": 53.12990900,
    "Longitude": 23.18666900,
    "L4": 5323,
    "L6": 531232,
    "IsActive": true
  },
  {
    "StoreId": 401,
    "Code": "1708",
    "Street": "ul. Piękna 1",
    "City": "Koluszki",
    "Latitude": 51.74304000,
    "Longitude": 19.82691100,
    "L4": 5220,
    "L6": 517198,
    "IsActive": true
  },
  {
    "StoreId": 402,
    "Code": "1710",
    "Street": "ul. Otolińska 8",
    "City": "Płock",
    "Latitude": 52.54781000,
    "Longitude": 19.71775700,
    "L4": 5320,
    "L6": 525197,
    "IsActive": true
  },
  {
    "StoreId": 403,
    "Code": "1712",
    "Street": "ul. Chocimska 7",
    "City": "Brzeg",
    "Latitude": 50.85244600,
    "Longitude": 17.45898600,
    "L4": 5117,
    "L6": 509175,
    "IsActive": true
  },
  {
    "StoreId": 404,
    "Code": "1717",
    "Street": "ul. Majówka 23",
    "City": "Starachowice",
    "Latitude": 51.05204800,
    "Longitude": 21.08493500,
    "L4": 5121,
    "L6": 511211,
    "IsActive": true
  },
  {
    "StoreId": 405,
    "Code": "1720",
    "Street": "ul. Gałczyńskiego 20",
    "City": "Zgierz",
    "Latitude": 51.85482200,
    "Longitude": 19.39052400,
    "L4": 5219,
    "L6": 519194,
    "IsActive": true
  },
  {
    "StoreId": 406,
    "Code": "1721",
    "Street": "ul. J. Hallera 19C/D",
    "City": "Starogard Gdański",
    "Latitude": 53.96959200,
    "Longitude": 18.52754100,
    "L4": 5419,
    "L6": 540185,
    "IsActive": true
  },
  {
    "StoreId": 407,
    "Code": "1722",
    "Street": "ul. Ks. Waląga 1",
    "City": "Pruszcz Gdański",
    "Latitude": 54.26098800,
    "Longitude": 18.63875100,
    "L4": 5419,
    "L6": 543186,
    "IsActive": true
  },
  {
    "StoreId": 408,
    "Code": "1724",
    "Street": "ul. Wawrzyniaka 2",
    "City": "Wrocław",
    "Latitude": 51.07533800,
    "Longitude": 17.00466900,
    "L4": 5117,
    "L6": 511170,
    "IsActive": true
  },
  {
    "StoreId": 409,
    "Code": "1726",
    "Street": "ul. Kasprowicza 54",
    "City": "Wągrowiec",
    "Latitude": 52.81308000,
    "Longitude": 17.20859400,
    "L4": 5317,
    "L6": 528172,
    "IsActive": true
  },
  {
    "StoreId": 410,
    "Code": "1727",
    "Street": "ul. Bohaterów Warszawy 1",
    "City": "Resko",
    "Latitude": 53.77332600,
    "Longitude": 15.40694900,
    "L4": 5415,
    "L6": 538154,
    "IsActive": true
  },
  {
    "StoreId": 411,
    "Code": "1728",
    "Street": "ul. Chreptowicza 15",
    "City": "Augustów",
    "Latitude": 53.83675100,
    "Longitude": 22.97759900,
    "L4": 5423,
    "L6": 538230,
    "IsActive": true
  },
  {
    "StoreId": 412,
    "Code": "1729",
    "Street": "ul. Mickiewicza 80",
    "City": "Leżajsk",
    "Latitude": 50.26555300,
    "Longitude": 22.41766100,
    "L4": 5022,
    "L6": 503224,
    "IsActive": true
  },
  {
    "StoreId": 413,
    "Code": "1730",
    "Street": "ul. Mieszka I 2",
    "City": "Brodnica"
  },
  {
    "StoreId": 414,
    "Code": "1731",
    "Street": "ul. Wodzisławska 12",
    "City": "Żory",
    "Latitude": 50.04253900,
    "Longitude": 18.68685500,
    "L4": 5019,
    "L6": 500187,
    "IsActive": true
  },
  {
    "StoreId": 415,
    "Code": "1732",
    "Street": "ul. Jagiellońska 41",
    "City": "Wysokie Mazowieckie",
    "Latitude": 52.91750000,
    "Longitude": 22.51306100,
    "L4": 5323,
    "L6": 529225,
    "IsActive": true
  },
  {
    "StoreId": 416,
    "Code": "1734",
    "Street": "ul. Strzegomska 15",
    "City": "Świebodzice",
    "Latitude": 50.86118200,
    "Longitude": 16.32232400,
    "L4": 5116,
    "L6": 509163,
    "IsActive": true
  },
  {
    "StoreId": 417,
    "Code": "1735",
    "Street": "ul. Piłsudskiego 47",
    "City": "Międzychód",
    "Latitude": 52.60100000,
    "Longitude": 15.88968700,
    "L4": 5316,
    "L6": 526159,
    "IsActive": true
  },
  {
    "StoreId": 418,
    "Code": "1736",
    "Street": "ul. Zdrojowa 33",
    "City": "Kudowa-Zdrój",
    "Latitude": 50.44133400,
    "Longitude": 16.24028100,
    "L4": 5016,
    "L6": 504162,
    "IsActive": true
  },
  {
    "StoreId": 419,
    "Code": "1737",
    "Street": "Al. Kościuszki 16/18",
    "City": "Kościan",
    "Latitude": 52.08349500,
    "Longitude": 16.64181900,
    "L4": 5217,
    "L6": 521166,
    "IsActive": true
  },
  {
    "StoreId": 420,
    "Code": "1739",
    "Street": "ul. Kościuszki 45",
    "City": "Trzebinia"
  },
  {
    "StoreId": 421,
    "Code": "1740",
    "Street": "ul. Rynek 11",
    "City": "Siewierz",
    "Latitude": 50.46790100,
    "Longitude": 19.23561300,
    "L4": 5019,
    "L6": 505192,
    "IsActive": true
  },
  {
    "StoreId": 422,
    "Code": "1741",
    "Street": "ul. Kopernika 3",
    "City": "Lubawa",
    "Latitude": 53.50719900,
    "Longitude": 19.75047600,
    "L4": 5420,
    "L6": 535198,
    "IsActive": true
  },
  {
    "StoreId": 423,
    "Code": "1742",
    "Street": "ul. Konopnickiej 2",
    "City": "Bydgoszcz",
    "Latitude": 53.11181500,
    "Longitude": 18.00731100,
    "L4": 5318,
    "L6": 531180,
    "IsActive": true
  },
  {
    "StoreId": 424,
    "Code": "1743",
    "Street": "ul. Konopnickiej 2a",
    "City": "Ostrów Wielkopolski",
    "Latitude": 51.65272200,
    "Longitude": 17.81496300,
    "L4": 5218,
    "L6": 517178,
    "IsActive": true
  },
  {
    "StoreId": 425,
    "Code": "1744",
    "Street": "ul. Zielonogórska 34A",
    "City": "Czerwieńsk",
    "Latitude": 52.00880900,
    "Longitude": 15.42093700,
    "L4": 5215,
    "L6": 520154,
    "IsActive": true
  },
  {
    "StoreId": 426,
    "Code": "1747",
    "Street": "Os. Brzozowe 10",
    "City": "Mrągowo",
    "Latitude": 53.86361300,
    "Longitude": 21.29779700,
    "L4": 5421,
    "L6": 539213,
    "IsActive": true
  },
  {
    "StoreId": 427,
    "Code": "1749",
    "Street": "Ul. Wieniawska 11",
    "City": "Lublin"
  },
  {
    "StoreId": 428,
    "Code": "1750",
    "Street": "ul. Milczańska 8",
    "City": "Szczecin",
    "Latitude": 53.40866000,
    "Longitude": 14.52694900,
    "L4": 5315,
    "L6": 534145,
    "IsActive": true
  },
  {
    "StoreId": 429,
    "Code": "1751",
    "Street": "ul. Kopernika 33a",
    "City": "Głowno",
    "Latitude": 51.95556000,
    "Longitude": 19.72907400,
    "L4": 5220,
    "L6": 520197,
    "IsActive": true
  },
  {
    "StoreId": 430,
    "Code": "1756",
    "Street": "Pl. Słowiański 3",
    "City": "Kętrzyn",
    "Latitude": 54.07512900,
    "Longitude": 21.38223400,
    "L4": 5421,
    "L6": 541214,
    "IsActive": true
  },
  {
    "StoreId": 431,
    "Code": "1757",
    "Street": "ul. Wojska Polskiego 2",
    "City": "Parczew",
    "Latitude": 51.63900600,
    "Longitude": 22.89644400,
    "L4": 5223,
    "L6": 516229,
    "IsActive": true
  },
  {
    "StoreId": 432,
    "Code": "1759",
    "Street": "ul. Hallera 233a",
    "City": "Gdańsk",
    "Latitude": 54.40463800,
    "Longitude": 18.62602900,
    "L4": 5419,
    "L6": 544186,
    "IsActive": true
  },
  {
    "StoreId": 433,
    "Code": "1760",
    "Street": "ul. Przechodnia 8",
    "City": "Biała Podlaska",
    "Latitude": 52.03684000,
    "Longitude": 23.12002800,
    "L4": 5223,
    "L6": 520231,
    "IsActive": true
  },
  {
    "StoreId": 434,
    "Code": "1761",
    "Street": "ul. Żeglarska 1",
    "City": "Kostrzyn n/Odrą",
    "Latitude": 52.58646100,
    "Longitude": 14.65328000,
    "L4": 5315,
    "L6": 526147,
    "IsActive": true
  },
  {
    "StoreId": 435,
    "Code": "1762",
    "Street": "ul. Przasnyska 39",
    "City": "Maków Mazowiecki"
  },
  {
    "StoreId": 436,
    "Code": "1763",
    "Street": "ul. Dworcowa 23",
    "City": "Czersk",
    "Latitude": 53.79868400,
    "Longitude": 17.97084800,
    "L4": 5418,
    "L6": 538180,
    "IsActive": true
  },
  {
    "StoreId": 437,
    "Code": "1764",
    "Street": "ul. Grunwaldzka 7",
    "City": "Elbląg"
  },
  {
    "StoreId": 438,
    "Code": "1765",
    "Street": "ul. Szarych Szeregów 18",
    "City": "Inowrocław",
    "Latitude": 52.78066700,
    "Longitude": 18.24329800,
    "L4": 5318,
    "L6": 528182,
    "IsActive": true
  },
  {
    "StoreId": 439,
    "Code": "1766",
    "Street": "Aleja Lipowa 1a",
    "City": "Lubraniec",
    "Latitude": 52.54360800,
    "Longitude": 18.83865600,
    "L4": 5319,
    "L6": 525188,
    "IsActive": true
  },
  {
    "StoreId": 440,
    "Code": "1767",
    "Street": "ul. Kwiatkowskiego 1d",
    "City": "Nisko",
    "Latitude": 50.51958000,
    "Longitude": 22.14664300,
    "L4": 5122,
    "L6": 505221,
    "IsActive": true
  },
  {
    "StoreId": 441,
    "Code": "1768",
    "Street": "ul. 1000-lecia Państwa Polskiego 12",
    "City": "Dąbrowa Białostocka"
  },
  {
    "StoreId": 442,
    "Code": "1769",
    "Street": "ul. Mińska 58",
    "City": "Wrocław"
  },
  {
    "StoreId": 443,
    "Code": "1770",
    "Street": "ul. Sandomierska  89",
    "City": "Kielce",
    "Latitude": 50.87102400,
    "Longitude": 20.64818500,
    "L4": 5121,
    "L6": 509206,
    "IsActive": true
  },
  {
    "StoreId": 444,
    "Code": "1773",
    "Street": "ul. Grunwaldzka 19",
    "City": "Nowe Miasto Lubawskie",
    "Latitude": 53.43123700,
    "Longitude": 19.58944600,
    "L4": 5320,
    "L6": 534196,
    "IsActive": true
  },
  {
    "StoreId": 445,
    "Code": "1775",
    "Street": "ul. Sikorskiego 11",
    "City": "Ciechanów",
    "Latitude": 52.87913300,
    "Longitude": 20.62964200,
    "L4": 5321,
    "L6": 529206,
    "IsActive": true
  },
  {
    "StoreId": 446,
    "Code": "1776",
    "Street": "ul. Nowy Rynek 6",
    "City": "Suchy Las"
  },
  {
    "StoreId": 447,
    "Code": "1778",
    "Street": "ul. Sidorska 2K",
    "City": "Biała Podlaska",
    "Latitude": 52.02402800,
    "Longitude": 23.12402900,
    "L4": 5223,
    "L6": 520231,
    "IsActive": true
  },
  {
    "StoreId": 448,
    "Code": "1781",
    "Street": "ul. Kościuszki 15",
    "City": "Gorzów Wielkopolski",
    "Latitude": 52.75126800,
    "Longitude": 15.25055000,
    "L4": 5315,
    "L6": 528153,
    "IsActive": true
  },
  {
    "StoreId": 449,
    "Code": "1783",
    "Street": "ul. Komuny Paryskiej 25a",
    "City": "Bolesławiec",
    "Latitude": 51.25723400,
    "Longitude": 15.56426300,
    "L4": 5116,
    "L6": 513156,
    "IsActive": true
  },
  {
    "StoreId": 450,
    "Code": "1784",
    "Street": "ul. Paderewskiego 6",
    "City": "Starogard Gdański"
  },
  {
    "StoreId": 451,
    "Code": "1786",
    "Street": "ul. Uniczowska 20",
    "City": "Katowice",
    "Latitude": 50.17639000,
    "Longitude": 18.96784600,
    "L4": 5019,
    "L6": 502190,
    "IsActive": true
  },
  {
    "StoreId": 452,
    "Code": "1787",
    "Street": "ul. Jana Pawła II 9/10",
    "City": "Witkowo"
  },
  {
    "StoreId": 453,
    "Code": "1789",
    "Street": "pl. Wolności 37",
    "City": "Ogrodzieniec",
    "Latitude": 50.44891400,
    "Longitude": 19.51780000,
    "L4": 5020,
    "L6": 504195,
    "IsActive": true
  },
  {
    "StoreId": 454,
    "Code": "1791",
    "Street": "ul. Graniczna 14",
    "City": "Łęknica",
    "Latitude": 51.54065500,
    "Longitude": 14.73188000,
    "L4": 5215,
    "L6": 515147,
    "IsActive": true
  },
  {
    "StoreId": 455,
    "Code": "1792",
    "Street": "ul. Limanowskiego 13",
    "City": "Jawor",
    "Latitude": 51.05742300,
    "Longitude": 16.17837100,
    "L4": 5116,
    "L6": 511162,
    "IsActive": true
  },
  {
    "StoreId": 456,
    "Code": "1793",
    "Street": "ul. Piłsudskiego 15",
    "City": "Puławy",
    "Latitude": 51.41597900,
    "Longitude": 21.95450200,
    "L4": 5122,
    "L6": 514220,
    "IsActive": true
  },
  {
    "StoreId": 457,
    "Code": "1794",
    "Street": "Os. Wybickiego 3b",
    "City": "Kartuzy",
    "Latitude": 54.32608700,
    "Longitude": 18.19541900,
    "L4": 5418,
    "L6": 543182,
    "IsActive": true
  },
  {
    "StoreId": 458,
    "Code": "1795",
    "Street": "ul. Jana Pawła II 2/4",
    "City": "Pułtusk",
    "Latitude": 52.70206400,
    "Longitude": 21.07498700,
    "L4": 5321,
    "L6": 527211,
    "IsActive": true
  },
  {
    "StoreId": 459,
    "Code": "1796",
    "Street": "ul. Sienkiewicza 20a",
    "City": "Malbork",
    "Latitude": 54.03341400,
    "Longitude": 19.03465900,
    "L4": 5419,
    "L6": 540190,
    "IsActive": true
  },
  {
    "StoreId": 460,
    "Code": "1798",
    "Street": "ul. Zamkowa 2",
    "City": "Węgorzewo",
    "Latitude": 54.20881600,
    "Longitude": 21.74528000,
    "L4": 5422,
    "L6": 542217,
    "IsActive": true
  },
  {
    "StoreId": 461,
    "Code": "1799",
    "Street": "ul. Bohaterów Westerplatte 20B",
    "City": "Krosno",
    "Latitude": 49.68435600,
    "Longitude": 21.78054400,
    "L4": 5022,
    "L6": 497218,
    "IsActive": true
  },
  {
    "StoreId": 462,
    "Code": "1800",
    "Street": "ul. Wiczlińska 45A",
    "City": "Gdynia",
    "Latitude": 54.47376800,
    "Longitude": 18.46626100,
    "L4": 5418,
    "L6": 545185,
    "IsActive": true
  },
  {
    "StoreId": 463,
    "Code": "1801",
    "Street": "Os. Niepodległości 19",
    "City": "Słupca",
    "Latitude": 52.29394100,
    "Longitude": 17.87460900,
    "L4": 5218,
    "L6": 523179,
    "IsActive": true
  },
  {
    "StoreId": 464,
    "Code": "1802",
    "Street": "ul. Wejchertów 2",
    "City": "Tychy",
    "Latitude": 50.11516100,
    "Longitude": 19.00602300,
    "L4": 5019,
    "L6": 501190,
    "IsActive": true
  },
  {
    "StoreId": 465,
    "Code": "1803",
    "Street": "ul. Zblewska 10A",
    "City": "Starogard Gdański",
    "Latitude": 53.96256500,
    "Longitude": 18.51006300,
    "L4": 5419,
    "L6": 540185,
    "IsActive": true
  },
  {
    "StoreId": 466,
    "Code": "1806",
    "Street": "ul. Marii Konopnickiej 4",
    "City": "Żychlin",
    "Latitude": 52.23704200,
    "Longitude": 19.62765900,
    "L4": 5220,
    "L6": 522196,
    "IsActive": true
  },
  {
    "StoreId": 467,
    "Code": "1807",
    "Street": "Ul. Św. Ducha 26A",
    "City": "Strzelno",
    "Latitude": 52.62873200,
    "Longitude": 18.17232800,
    "L4": 5318,
    "L6": 526182,
    "IsActive": true
  },
  {
    "StoreId": 468,
    "Code": "1808",
    "Street": "ul. Głowackiego 7",
    "City": "Głogów",
    "Latitude": 51.66359000,
    "Longitude": 16.07877400,
    "L4": 5216,
    "L6": 517161,
    "IsActive": true
  },
  {
    "StoreId": 469,
    "Code": "1809",
    "Street": "ul. Sienkiewicza 27",
    "City": "Opalenica",
    "Latitude": 52.30486000,
    "Longitude": 16.41575200,
    "L4": 5216,
    "L6": 523164,
    "IsActive": true
  },
  {
    "StoreId": 470,
    "Code": "1810",
    "Street": "ul. Iwaszkiewicza 3",
    "City": "Zgorzelec",
    "Latitude": 51.15687400,
    "Longitude": 14.99994300,
    "L4": 5115,
    "L6": 512150,
    "IsActive": true
  },
  {
    "StoreId": 471,
    "Code": "1811",
    "Street": "ul. Witkiewicza 41",
    "City": "Szczecin",
    "Latitude": 53.43252300,
    "Longitude": 14.51108200,
    "L4": 5315,
    "L6": 534145,
    "IsActive": true
  },
  {
    "StoreId": 472,
    "Code": "1812",
    "Street": "ul.  Warszawska 10",
    "City": "Żuromin",
    "Latitude": 53.06404900,
    "Longitude": 19.91197400,
    "L4": 5320,
    "L6": 531199,
    "IsActive": true
  },
  {
    "StoreId": 473,
    "Code": "1813",
    "Street": "ul. Rynek 4",
    "City": "Dęblin",
    "Latitude": 51.56208900,
    "Longitude": 21.86484900,
    "L4": 5222,
    "L6": 516219,
    "IsActive": true
  },
  {
    "StoreId": 474,
    "Code": "1814",
    "Street": "ul. Wapiennikowa 40",
    "City": "Kielce",
    "Latitude": 50.85185500,
    "Longitude": 20.63072600,
    "L4": 5121,
    "L6": 509206,
    "IsActive": true
  },
  {
    "StoreId": 475,
    "Code": "1815",
    "Street": "ul. 700 Lecia 36",
    "City": "Żnin",
    "Latitude": 52.84749300,
    "Longitude": 17.73372000,
    "L4": 5318,
    "L6": 528177,
    "IsActive": true
  },