[{"name": "Bielany Wroc\u0142awskie", "lat": "51.03923", "lon": "16.97184", "postalCode": "55-040"}, {"name": "Bielawa", "lat": "50.64583", "lon": "16.63944", "postalCode": "58-262"}, {"name": "Bierut\u00f3w", "lat": "51.12414", "lon": "17.54827", "postalCode": "56-420"}, {"name": "Bogatynia", "lat": "50.91416", "lon": "14.95655", "postalCode": "59-920"}, {"name": "Bogusz\u00f3w-Gorce", "lat": "50.78269", "lon": "16.16241", "postalCode": "58-371"}, {"name": "Boles\u0142awiec", "lat": "51.26247", "lon": "15.56956", "postalCode": "59-700"}, {"name": "Bolk\u00f3w", "lat": "50.92335", "lon": "16.10417", "postalCode": "59-420"}, {"name": "Brzeg Dolny", "lat": "51.26865", "lon": "16.72659", "postalCode": "56-120"}, {"name": "Bystrzyca K\u0142odzka", "lat": "50.29572", "lon": "16.65185", "postalCode": "57-500"}, {"name": "Chocian\u00f3w", "lat": "51.41816", "lon": "15.90689", "postalCode": "59-140"}, {"name": "Chojn\u00f3w", "lat": "51.27107", "lon": "15.93766", "postalCode": "59-225"}, {"name": "Dobroszyce", "lat": "51.26438", "lon": "17.34280", "postalCode": "56-410"}, {"name": "Dobrzykowice", "lat": "51.09331", "lon": "17.19476", "postalCode": "55-002"}, {"name": "Domaszczyn", "lat": "51.18746", "lon": "17.16697", "postalCode": "55-095"}, {"name": "Duszniki-Zdr\u00f3j", "lat": "50.40317", "lon": "16.39304", "postalCode": "57-340"}, {"name": "Dzier\u017coni\u00f3w", "lat": "50.72623", "lon": "16.65407", "postalCode": "58-200"}, {"name": "D\u0142ugo\u0142\u0119ka", "lat": "51.17672", "lon": "17.19325", "postalCode": "55-095"}, {"name": "Gaworzyce", "lat": "51.62724", "lon": "15.88289", "postalCode": "59-180"}, {"name": "Gryf\u00f3w \u015al\u0105ski", "lat": "51.03206", "lon": "15.41858", "postalCode": "59-620"}, {"name": "G\u00f3ra", "lat": "51.66739", "lon": "16.54273", "postalCode": "56-200"}, {"name": "G\u0142og\u00f3w", "lat": "51.66277", "lon": "16.08749", "postalCode": "67-200"}, {"name": "G\u0142uszyca", "lat": "50.68618", "lon": "16.37167", "postalCode": "58-340"}, {"name": "Jawor", "lat": "51.05265", "lon": "16.19509", "postalCode": "59-400"}, {"name": "Jaworzyna \u015al\u0105ska", "lat": "50.91105", "lon": "16.43176", "postalCode": "58-140"}, {"name": "Jedlina-Zdr\u00f3j", "lat": "50.71969", "lon": "16.34809", "postalCode": "58-330"}, {"name": "Jelcz-Laskowice", "lat": "51.03863", "lon": "17.35150", "postalCode": "55-220"}, {"name": "Jelenia G\u00f3ra", "lat": "50.85133", "lon": "15.73459", "postalCode": "58-500"}, {"name": "Je\u017c\u00f3w Sudecki", "lat": "50.93030", "lon": "15.74471", "postalCode": "58-521"}, {"name": "Kamieniec Wroc\u0142awski", "lat": "51.07443", "lon": "17.17503", "postalCode": "55-002"}, {"name": "Kamieniec Z\u0105bkowicki", "lat": "50.52397", "lon": "16.87799", "postalCode": "57-230"}, {"name": "Kamienna G\u00f3ra", "lat": "50.78363", "lon": "16.02750", "postalCode": "58-400"}, {"name": "Karpacz", "lat": "50.79124", "lon": "15.78096", "postalCode": "58-534"}, {"name": "Kie\u0142cz\u00f3w", "lat": "51.13963", "lon": "17.18042", "postalCode": "55-093"}, {"name": "Kobierzyce", "lat": "50.97148", "lon": "16.92863", "postalCode": "55-040"}, {"name": "Kowary", "lat": "50.79615", "lon": "15.83259", "postalCode": "58-530"}, {"name": "Kudowa-Zdr\u00f3j", "lat": "50.43492", "lon": "16.23916", "postalCode": "57-350"}, {"name": "K\u0105ty Wroc\u0142awskie", "lat": "51.03076", "lon": "16.76905", "postalCode": "55-080"}, {"name": "K\u0142odzko", "lat": "50.43437", "lon": "16.65733", "postalCode": "57-300"}, {"name": "Legnica", "lat": "51.20701", "lon": "16.15532", "postalCode": "59-220"}, {"name": "Le\u015bna", "lat": "51.02356", "lon": "15.26358", "postalCode": "59-820"}, {"name": "Lubawka", "lat": "50.70915", "lon": "16.00037", "postalCode": "58-420"}, {"name": "Luba\u0144", "lat": "51.12389", "lon": "15.28880", "postalCode": "59-800"}, {"name": "Lubin", "lat": "51.40026", "lon": "16.20152", "postalCode": "59-300"}, {"name": "Lubomierz", "lat": "51.01186", "lon": "15.50886", "postalCode": "59-623"}, {"name": "Lw\u00f3wek \u015al\u0105ski", "lat": "51.11530", "lon": "15.58795", "postalCode": "59-601"}, {"name": "L\u0105dek-Zdr\u00f3j", "lat": "50.34309", "lon": "16.88544", "postalCode": "57-540"}, {"name": "Milicz", "lat": "51.53363", "lon": "17.29526", "postalCode": "56-300"}, {"name": "Mirk\u00f3w", "lat": "51.16883", "lon": "17.15861", "postalCode": "55-095"}, {"name": "Mirsk", "lat": "50.96970", "lon": "15.38491", "postalCode": "59-630"}, {"name": "Mi\u0119dzyb\u00f3rz", "lat": "51.39850", "lon": "17.66683", "postalCode": "56-513"}, {"name": "Mys\u0142akowice", "lat": "50.83606", "lon": "15.79054", "postalCode": "58-533"}, {"name": "Niemcza", "lat": "50.72132", "lon": "16.83554", "postalCode": "58-230"}, {"name": "Nowa Ruda", "lat": "50.57929", "lon": "16.50470", "postalCode": "57-400"}, {"name": "Nowogrodziec", "lat": "51.19587", "lon": "15.39873", "postalCode": "59-730"}, {"name": "Oborniki \u015al\u0105skie", "lat": "51.30076", "lon": "16.91428", "postalCode": "55-120"}, {"name": "Ole\u015bnica", "lat": "51.21263", "lon": "17.39596", "postalCode": "56-400"}, {"name": "Olszyna", "lat": "51.06475", "lon": "15.37864", "postalCode": "59-830"}, {"name": "O\u0142awa", "lat": "50.93848", "lon": "17.30294", "postalCode": "55-200"}, {"name": "Piechowice", "lat": "50.83331", "lon": "15.58627", "postalCode": "58-573"}, {"name": "Pieszyce", "lat": "50.71119", "lon": "16.58306", "postalCode": "58-209"}, {"name": "Pie\u0144sk", "lat": "51.24663", "lon": "15.04818", "postalCode": "59-924"}, {"name": "Pi\u0142awa G\u00f3rna", "lat": "50.68245", "lon": "16.74736", "postalCode": "58-240"}, {"name": "Polanica-Zdr\u00f3j", "lat": "50.40346", "lon": "16.51282", "postalCode": "57-320"}, {"name": "Polkowice", "lat": "51.50341", "lon": "16.07030", "postalCode": "59-100"}, {"name": "Prochowice", "lat": "51.27269", "lon": "16.36554", "postalCode": "59-230"}, {"name": "Prusice", "lat": "51.37169", "lon": "16.96239", "postalCode": "55-110"}, {"name": "Przemk\u00f3w", "lat": "51.52680", "lon": "15.78884", "postalCode": "59-170"}, {"name": "Radwanice", "lat": "51.56336", "lon": "15.94651", "postalCode": "59-160"}, {"name": "Ruszowice", "lat": "51.64345", "lon": "16.08257", "postalCode": "67-210"}, {"name": "Siechnice", "lat": "51.03348", "lon": "17.14752", "postalCode": "55-011"}, {"name": "Smolec", "lat": "51.07255", "lon": "16.88458", "postalCode": "55-080"}, {"name": "Sob\u00f3tka", "lat": "50.89879", "lon": "16.74524", "postalCode": "55-050"}, {"name": "Stronie \u015al\u0105skie", "lat": "50.29867", "lon": "16.87500", "postalCode": "57-550"}, {"name": "Strzegom", "lat": "50.95928", "lon": "16.34863", "postalCode": "58-150"}, {"name": "Strzelin", "lat": "50.78333", "lon": "17.06667", "postalCode": "57-100"}, {"name": "Syc\u00f3w", "lat": "51.30457", "lon": "17.69555", "postalCode": "56-500"}, {"name": "Szczawno-Zdr\u00f3j", "lat": "50.79975", "lon": "16.25397", "postalCode": "58-310"}, {"name": "Szczytna", "lat": "50.41148", "lon": "16.44780", "postalCode": "57-330"}, {"name": "Szklarska Por\u0119ba", "lat": "50.82873", "lon": "15.52013", "postalCode": "58-580"}, {"name": "Trzebnica", "lat": "51.32318", "lon": "17.08393", "postalCode": "55-100"}, {"name": "Twardog\u00f3ra", "lat": "51.36326", "lon": "17.47054", "postalCode": "56-416"}, {"name": "Wa\u0142brzych", "lat": "50.78400", "lon": "16.28430", "postalCode": "58-302"}, {"name": "Wi\u0105z\u00f3w", "lat": "50.81275", "lon": "17.20353", "postalCode": "57-120"}, {"name": "Wo\u0142\u00f3w", "lat": "51.33615", "lon": "16.64496", "postalCode": "56-100"}, {"name": "Wroc\u0142aw", "lat": "51.10195", "lon": "17.03667", "postalCode": "50-007"}, {"name": "Wysoka", "lat": "51.04226", "lon": "17.01475", "postalCode": "52-200"}, {"name": "W\u0105sosz", "lat": "51.56441", "lon": "16.69552", "postalCode": "56-210"}, {"name": "Zgorzelec", "lat": "51.14865", "lon": "15.01585", "postalCode": "59-900"}, {"name": "Zi\u0119bice", "lat": "50.60102", "lon": "17.04410", "postalCode": "57-220"}, {"name": "Z\u0105bkowice \u015al\u0105skie", "lat": "50.59629", "lon": "16.81108", "postalCode": "57-200"}, {"name": "Z\u0142otoryja", "lat": "51.12343", "lon": "15.91757", "postalCode": "59-500"}, {"name": "\u0141agiewniki", "lat": "50.79016", "lon": "16.84623", "postalCode": "58-210"}, {"name": "\u015acinawa", "lat": "51.40983", "lon": "16.43897", "postalCode": "59-330"}, {"name": "\u015aroda \u015al\u0105ska", "lat": "51.16309", "lon": "16.59520", "postalCode": "55-300"}, {"name": "\u015awidnica", "lat": "50.84051", "lon": "16.48860", "postalCode": "58-100"}, {"name": "\u015awiebodzice", "lat": "50.85803", "lon": "16.32151", "postalCode": "58-160"}, {"name": "\u015awierad\u00f3w-Zdr\u00f3j", "lat": "50.91210", "lon": "15.34200", "postalCode": "59-980"}, {"name": "\u017bar\u00f3w", "lat": "50.93947", "lon": "16.49665", "postalCode": "58-130"}, {"name": "\u017bmigr\u00f3d", "lat": "51.46760", "lon": "16.90779", "postalCode": "55-140"}, {"name": "Aleksandr\u00f3w Kujawski", "lat": "52.86653", "lon": "18.69801", "postalCode": "87-700"}, {"name": "Barcin", "lat": "52.85584", "lon": "17.93792", "postalCode": "88-190"}, {"name": "Bia\u0142e B\u0142ota", "lat": "53.09754", "lon": "17.91819", "postalCode": "86-005"}, {"name": "Brodnica", "lat": "53.25021", "lon": "19.40285", "postalCode": "87-300"}, {"name": "Brze\u015b\u0107 Kujawski", "lat": "52.60443", "lon": "18.90209", "postalCode": "87-880"}, {"name": "Brzoza", "lat": "53.03058", "lon": "18.01435", "postalCode": "86-061"}, {"name": "Brzoz\u00f3wka", "lat": "53.02156", "lon": "18.80781", "postalCode": "87-123"}, {"name": "Bydgoszcz", "lat": "53.13420", "lon": "17.99035", "postalCode": "85-059"}, {"name": "Cekcyn", "lat": "53.57311", "lon": "18.01283", "postalCode": "89-511"}, {"name": "Che\u0142mno", "lat": "53.35000", "lon": "18.43333", "postalCode": "86-200"}, {"name": "Che\u0142m\u017ca", "lat": "53.18478", "lon": "18.60600", "postalCode": "87-140"}, {"name": "Choce\u0144", "lat": "52.48549", "lon": "19.01740", "postalCode": "87-850"}, {"name": "Chodecz", "lat": "52.40483", "lon": "19.02872", "postalCode": "87-860"}, {"name": "Ciechocinek", "lat": "52.86943", "lon": "18.79115", "postalCode": "87-720"}, {"name": "Czernikowo", "lat": "52.94578", "lon": "18.93902", "postalCode": "87-640"}, {"name": "Dobrcz", "lat": "53.26587", "lon": "18.14790", "postalCode": "86-022"}, {"name": "Dobre", "lat": "52.68149", "lon": "18.57837", "postalCode": "88-210"}, {"name": "Dobrzy\u0144 nad Wis\u0142\u0105", "lat": "52.63542", "lon": "19.32333", "postalCode": "87-610"}, {"name": "Dolna Grupa", "lat": "53.49792", "lon": "18.68103", "postalCode": "86-134"}, {"name": "Drzycim", "lat": "53.50974", "lon": "18.31597", "postalCode": "86-140"}, {"name": "D\u0105browa Biskupia", "lat": "52.77645", "lon": "18.53387", "postalCode": "88-133"}, {"name": "D\u0105browa Che\u0142mi\u0144ska", "lat": "53.17483", "lon": "18.30586", "postalCode": "86-070"}, {"name": "Gniewkowo", "lat": "52.89387", "lon": "18.41116", "postalCode": "88-140"}, {"name": "Golub-Dobrzy\u0144", "lat": "53.11187", "lon": "19.05372", "postalCode": "87-400"}, {"name": "Grudzi\u0105dz", "lat": "53.46469", "lon": "18.77287", "postalCode": "86-311"}, {"name": "Gr\u0119bocin", "lat": "53.03509", "lon": "18.75446", "postalCode": "87-162"}, {"name": "G\u00f3rzno", "lat": "53.19612", "lon": "19.64375", "postalCode": "87-320"}, {"name": "G\u0142ogowo", "lat": "53.01320", "lon": "18.82471", "postalCode": "87-123"}, {"name": "Inowroc\u0142aw", "lat": "52.79350", "lon": "18.26298", "postalCode": "88-100"}, {"name": "Izbica Kujawska", "lat": "52.42007", "lon": "18.76606", "postalCode": "87-865"}, {"name": "Jab\u0142onowo Pomorskie", "lat": "53.38945", "lon": "19.15512", "postalCode": "87-330"}, {"name": "Janikowo", "lat": "52.74921", "lon": "18.11518", "postalCode": "88-160"}, {"name": "Janowiec Wielkopolski", "lat": "52.75786", "lon": "17.48731", "postalCode": "88-430"}, {"name": "Kamie\u0144 Kraje\u0144ski", "lat": "53.53274", "lon": "17.52202", "postalCode": "89-430"}, {"name": "Kcynia", "lat": "52.99108", "lon": "17.48937", "postalCode": "89-240"}, {"name": "Kik\u00f3\u0142", "lat": "52.91228", "lon": "19.12048", "postalCode": "87-620"}, {"name": "Koronowo", "lat": "53.31296", "lon": "17.94148", "postalCode": "86-010"}, {"name": "Kowal", "lat": "52.53054", "lon": "19.14972", "postalCode": "87-820"}, {"name": "Kowalewo Pomorskie", "lat": "53.15508", "lon": "18.90166", "postalCode": "87-410"}, {"name": "Krobia", "lat": "53.03691", "lon": "18.78638", "postalCode": "87-162"}, {"name": "Kruszwica", "lat": "52.66974", "lon": "18.33116", "postalCode": "88-150"}, {"name": "Lipno", "lat": "52.83782", "lon": "19.17463", "postalCode": "87-600"}, {"name": "Lisewo", "lat": "53.29460", "lon": "18.68940", "postalCode": "86-230"}, {"name": "Lniano", "lat": "53.52738", "lon": "18.21972", "postalCode": "86-141"}, {"name": "Lubanie", "lat": "52.74842", "lon": "18.92173", "postalCode": "87-732"}, {"name": "Lubicz Dolny", "lat": "53.03174", "lon": "18.75342", "postalCode": "87-162"}, {"name": "Lubicz G\u00f3rny", "lat": "53.01559", "lon": "18.75770", "postalCode": "87-162"}, {"name": "Lubie\u0144 Kujawski", "lat": "52.40521", "lon": "19.16602", "postalCode": "87-840"}, {"name": "Lubraniec", "lat": "52.54130", "lon": "18.83362", "postalCode": "87-890"}, {"name": "Ma\u0142a Nieszawka", "lat": "52.98930", "lon": "18.54717", "postalCode": "87-103"}, {"name": "Mogilno", "lat": "52.65346", "lon": "17.96175", "postalCode": "88-300"}, {"name": "Mrocza", "lat": "53.24567", "lon": "17.60866", "postalCode": "89-115"}, {"name": "Nak\u0142o nad Noteci\u0105", "lat": "53.14118", "lon": "17.60400", "postalCode": "89-100"}, {"name": "Niemcz", "lat": "53.18368", "lon": "18.03597", "postalCode": "86-032"}, {"name": "Nowa Wie\u015b Wielka", "lat": "52.97016", "lon": "18.09306", "postalCode": "86-060"}, {"name": "Nowe", "lat": "53.64175", "lon": "18.71849", "postalCode": "86-170"}, {"name": "Obrowo", "lat": "52.97058", "lon": "18.88203", "postalCode": "87-126"}, {"name": "Osie", "lat": "53.59779", "lon": "18.34645", "postalCode": "86-150"}, {"name": "Osiek Nad Wis\u0142\u0105", "lat": "52.92786", "lon": "18.80208", "postalCode": "87-125"}, {"name": "Osielsko", "lat": "53.18813", "lon": "18.07336", "postalCode": "86-031"}, {"name": "Osi\u0119ciny", "lat": "52.63129", "lon": "18.72394", "postalCode": "88-220"}, {"name": "Pako\u015b\u0107", "lat": "52.80291", "lon": "18.08571", "postalCode": "88-170"}, {"name": "Piotrk\u00f3w Kujawski", "lat": "52.55000", "lon": "18.50000", "postalCode": "88-230"}, {"name": "Pruszcz", "lat": "53.33092", "lon": "18.19961", "postalCode": "86-120"}, {"name": "Raci\u0105\u017cek", "lat": "52.85658", "lon": "18.80874", "postalCode": "87-721"}, {"name": "Radziej\u00f3w", "lat": "52.62296", "lon": "18.52907", "postalCode": "88-200"}, {"name": "Radzy\u0144 Che\u0142mi\u0144ski", "lat": "53.38554", "lon": "18.93601", "postalCode": "87-220"}, {"name": "Rogowo", "lat": "52.72427", "lon": "17.65290", "postalCode": "88-420"}, {"name": "Rozgarty", "lat": "53.03943", "lon": "18.47862", "postalCode": "87-134"}, {"name": "Rypin", "lat": "53.06519", "lon": "19.41570", "postalCode": "87-500"}, {"name": "Sadki", "lat": "53.15913", "lon": "17.45174", "postalCode": "89-110"}, {"name": "Sk\u0119pe", "lat": "52.86841", "lon": "19.34358", "postalCode": "87-630"}, {"name": "Solec Kujawski", "lat": "53.07911", "lon": "18.22321", "postalCode": "86-050"}, {"name": "Strzelno", "lat": "52.62999", "lon": "18.17605", "postalCode": "88-320"}, {"name": "Szpetal G\u00f3rny", "lat": "52.68146", "lon": "19.09758", "postalCode": "87-811"}, {"name": "Szubin", "lat": "53.00870", "lon": "17.74382", "postalCode": "89-200"}, {"name": "S\u0119p\u00f3lno Kraje\u0144skie", "lat": "53.45469", "lon": "17.53593", "postalCode": "89-400"}, {"name": "Tarkowo Dolne", "lat": "52.95086", "lon": "18.10030", "postalCode": "86-060"}, {"name": "Top\u00f3lka", "lat": "52.50241", "lon": "18.71422", "postalCode": "87-875"}, {"name": "Toru\u0144", "lat": "53.00717", "lon": "18.61052", "postalCode": "87-100"}, {"name": "Tuchola", "lat": "53.58351", "lon": "17.86441", "postalCode": "89-500"}, {"name": "T\u0142uchowo", "lat": "52.74610", "lon": "19.46636", "postalCode": "87-605"}, {"name": "Unis\u0142aw", "lat": "53.21082", "lon": "18.38368", "postalCode": "86-260"}, {"name": "Warlubie", "lat": "53.58537", "lon": "18.62936", "postalCode": "86-160"}, {"name": "Wi\u0119cbork", "lat": "53.34818", "lon": "17.48532", "postalCode": "89-410"}, {"name": "W\u0105brze\u017ano", "lat": "53.28104", "lon": "18.94751", "postalCode": "87-200"}, {"name": "Zakrzewo", "lat": "52.75706", "lon": "18.63005", "postalCode": "87-707"}, {"name": "Zamo\u015b\u0107", "lat": "53.07307", "lon": "17.81075", "postalCode": "89-200"}, {"name": "Zielonka", "lat": "53.06291", "lon": "17.94642", "postalCode": "86-005"}, {"name": "Z\u0142otniki Kujawskie", "lat": "52.90435", "lon": "18.14360", "postalCode": "88-180"}, {"name": "\u0141abiszyn", "lat": "52.95000", "lon": "17.91667", "postalCode": "89-210"}, {"name": "\u0141asin", "lat": "53.51828", "lon": "19.08556", "postalCode": "86-320"}, {"name": "\u0141ochowo", "lat": "53.12214", "lon": "17.83898", "postalCode": "86-065"}, {"name": "\u0141ubianka", "lat": "53.13594", "lon": "18.47906", "postalCode": "87-152"}, {"name": "\u0141ysomice", "lat": "53.08551", "lon": "18.62221", "postalCode": "87-148"}, {"name": "\u015aliwice", "lat": "53.71413", "lon": "18.18207", "postalCode": "89-530"}, {"name": "\u015awiecie", "lat": "53.40709", "lon": "18.44439", "postalCode": "86-101"}, {"name": "\u017bnin", "lat": "52.84800", "lon": "17.73255", "postalCode": "88-400"}, {"name": "Adam\u00f3w", "lat": "51.74375", "lon": "22.26061", "postalCode": "21-412"}, {"name": "Annopol", "lat": "50.88556", "lon": "21.86002", "postalCode": "23-235"}, {"name": "Baran\u00f3w", "lat": "51.55741", "lon": "22.13675", "postalCode": "24-105"}, {"name": "Be\u0142\u017cec", "lat": "50.38427", "lon": "23.43873", "postalCode": "22-670"}, {"name": "Be\u0142\u017cyce", "lat": "51.17378", "lon": "22.28600", "postalCode": "24-200"}, {"name": "Bia\u0142a Podlaska", "lat": "52.04282", "lon": "23.11088", "postalCode": "21-500"}, {"name": "Bi\u0142goraj", "lat": "50.53669", "lon": "22.72358", "postalCode": "23-400"}, {"name": "Borki", "lat": "51.71927", "lon": "22.52628", "postalCode": "21-345"}, {"name": "Bychawa", "lat": "51.01295", "lon": "22.53739", "postalCode": "23-100"}, {"name": "Che\u0142m", "lat": "51.13296", "lon": "23.47468", "postalCode": "22-100"}, {"name": "Chodel", "lat": "51.11213", "lon": "22.13393", "postalCode": "24-350"}, {"name": "Chom\u0119ciska Ma\u0142e", "lat": "50.81035", "lon": "23.20370", "postalCode": "22-417"}, {"name": "Ciecierzyn", "lat": "51.31716", "lon": "22.60876", "postalCode": "21-003"}, {"name": "Cyc\u00f3w", "lat": "51.30234", "lon": "23.13462", "postalCode": "21-070"}, {"name": "Czemierniki", "lat": "51.67238", "lon": "22.63778", "postalCode": "21-306"}, {"name": "Drel\u00f3w", "lat": "51.91117", "lon": "22.87206", "postalCode": "21-570"}, {"name": "D\u0119blin", "lat": "51.56609", "lon": "21.85935", "postalCode": "08-530"}, {"name": "D\u0119bowa K\u0142oda", "lat": "51.59553", "lon": "23.00741", "postalCode": "21-211"}, {"name": "Fajs\u0142awice", "lat": "51.09772", "lon": "22.96140", "postalCode": "21-060"}, {"name": "Firlej", "lat": "51.55722", "lon": "22.50874", "postalCode": "21-136"}, {"name": "Frampol", "lat": "50.67054", "lon": "22.67170", "postalCode": "23-440"}, {"name": "Garb\u00f3w I", "lat": "51.35067", "lon": "22.34136", "postalCode": "21-080"}, {"name": "Glinne", "lat": "51.75810", "lon": "22.28157", "postalCode": "21-411"}, {"name": "Grab\u00f3w Szlachecki", "lat": "51.70046", "lon": "22.09858", "postalCode": "08-503"}, {"name": "G\u00f3ra Pu\u0142awska", "lat": "51.42209", "lon": "21.95676", "postalCode": "24-100"}, {"name": "Hrubiesz\u00f3w", "lat": "50.80882", "lon": "23.89790", "postalCode": "22-500"}, {"name": "Jan\u00f3w Lubelski", "lat": "50.70599", "lon": "22.41060", "postalCode": "23-300"}, {"name": "Jan\u00f3w Podlaski", "lat": "52.19600", "lon": "23.21100", "postalCode": "21-505"}, {"name": "Jastk\u00f3w", "lat": "51.30254", "lon": "22.43631", "postalCode": "21-002"}, {"name": "J\u00f3zef\u00f3w", "lat": "50.48121", "lon": "23.05377", "postalCode": "23-460"}, {"name": "Kamionka", "lat": "51.47070", "lon": "22.46367", "postalCode": "21-132"}, {"name": "Karczmiska Pierwsze", "lat": "51.23418", "lon": "21.99214", "postalCode": "24-310"}, {"name": "Kazimierz Dolny", "lat": "51.32266", "lon": "21.94895", "postalCode": "24-120"}, {"name": "Kock", "lat": "51.63945", "lon": "22.44786", "postalCode": "21-150"}, {"name": "Komar\u00f3wka Podlaska", "lat": "51.80260", "lon": "22.94526", "postalCode": "21-311"}, {"name": "Konopnica", "lat": "51.22547", "lon": "22.45948", "postalCode": "21-030"}, {"name": "Konstantyn\u00f3w", "lat": "52.20927", "lon": "23.08126", "postalCode": "21-543"}, {"name": "Ko\u0144skowola", "lat": "51.40933", "lon": "22.05174", "postalCode": "24-130"}, {"name": "Krasnobr\u00f3d", "lat": "50.54408", "lon": "23.21343", "postalCode": "22-440"}, {"name": "Krasnystaw", "lat": "50.98628", "lon": "23.17521", "postalCode": "22-300"}, {"name": "Kra\u015bnik", "lat": "50.92237", "lon": "22.22704", "postalCode": "23-200"}, {"name": "Krzywda", "lat": "51.79394", "lon": "22.20466", "postalCode": "21-470"}, {"name": "Kur\u00f3w", "lat": "51.38883", "lon": "22.18723", "postalCode": "24-170"}, {"name": "K\u0142oczew", "lat": "51.72184", "lon": "21.96366", "postalCode": "08-550"}, {"name": "Lubart\u00f3w", "lat": "51.45928", "lon": "22.60895", "postalCode": "21-100"}, {"name": "Lublin", "lat": "51.23955", "lon": "22.55257", "postalCode": "20-019"}, {"name": "Markusz\u00f3w", "lat": "51.37432", "lon": "22.26281", "postalCode": "24-173"}, {"name": "Mich\u00f3w", "lat": "51.52167", "lon": "22.31028", "postalCode": "21-140"}, {"name": "Milej\u00f3w", "lat": "51.22235", "lon": "22.92795", "postalCode": "21-020"}, {"name": "Milej\u00f3w-Osada", "lat": "51.23158", "lon": "22.92692", "postalCode": "21-020"}, {"name": "Mi\u0119dzyrzec Podlaski", "lat": "51.98589", "lon": "22.78325", "postalCode": "21-560"}, {"name": "Modliborzyce", "lat": "50.75307", "lon": "22.33063", "postalCode": "23-310"}, {"name": "Motycz", "lat": "51.24016", "lon": "22.38106", "postalCode": "21-030"}, {"name": "Na\u0142\u0119cz\u00f3w", "lat": "51.28686", "lon": "22.21664", "postalCode": "24-150"}, {"name": "Niedrzwica Du\u017ca", "lat": "51.11453", "lon": "22.39014", "postalCode": "24-220"}, {"name": "Niedrzwica Ko\u015bcielna", "lat": "51.08268", "lon": "22.36741", "postalCode": "24-220"}, {"name": "Niemce", "lat": "51.35863", "lon": "22.63099", "postalCode": "21-025"}, {"name": "Opole Lubelskie", "lat": "51.14663", "lon": "21.96701", "postalCode": "24-300"}, {"name": "Ostr\u00f3w Lubelski", "lat": "51.49592", "lon": "22.85794", "postalCode": "21-110"}, {"name": "Parczew", "lat": "51.63806", "lon": "22.91263", "postalCode": "21-200"}, {"name": "Piaski", "lat": "51.13749", "lon": "22.84996", "postalCode": "21-050"}, {"name": "Piotrowice", "lat": "51.08617", "lon": "22.47856", "postalCode": "23-107"}, {"name": "Poniatowa", "lat": "51.19099", "lon": "22.06949", "postalCode": "24-320"}, {"name": "Pu\u0142awy", "lat": "51.42209", "lon": "21.95676", "postalCode": "24-100"}, {"name": "P\u0142oskie", "lat": "50.72215", "lon": "23.18219", "postalCode": "22-403"}, {"name": "Radawiec Du\u017cy", "lat": "51.19656", "lon": "22.39079", "postalCode": "21-030"}, {"name": "Radzy\u0144 Podlaski", "lat": "51.78528", "lon": "22.62370", "postalCode": "21-300"}, {"name": "Ratoszyn Pierwszy", "lat": "51.08417", "lon": "22.15716", "postalCode": "24-350"}, {"name": "Rejowiec", "lat": "51.09146", "lon": "23.28478", "postalCode": "22-360"}, {"name": "Rejowiec Fabryczny", "lat": "51.11676", "lon": "23.24467", "postalCode": "22-170"}, {"name": "Ryki", "lat": "51.62642", "lon": "21.93399", "postalCode": "08-500"}, {"name": "Serokomla", "lat": "51.70065", "lon": "22.33533", "postalCode": "21-413"}, {"name": "Sitaniec", "lat": "50.75161", "lon": "23.24395", "postalCode": "22-402"}, {"name": "Stoczek \u0141ukowski", "lat": "51.96265", "lon": "21.96901", "postalCode": "21-450"}, {"name": "St\u0119\u017cyca", "lat": "51.58142", "lon": "21.77238", "postalCode": "08-540"}, {"name": "Szczebrzeszyn", "lat": "50.69440", "lon": "22.98319", "postalCode": "22-460"}, {"name": "Tarnogr\u00f3d", "lat": "50.36062", "lon": "22.74334", "postalCode": "23-420"}, {"name": "Terespol", "lat": "52.07290", "lon": "23.60896", "postalCode": "05-825"}, {"name": "Tomasz\u00f3w Lubelski", "lat": "50.44568", "lon": "23.41846", "postalCode": "22-600"}, {"name": "Trawniki", "lat": "51.13534", "lon": "23.00476", "postalCode": "21-044"}, {"name": "Turka", "lat": "51.28307", "lon": "22.67420", "postalCode": "20-258"}, {"name": "Turobin", "lat": "50.82280", "lon": "22.74459", "postalCode": "23-465"}, {"name": "Urszulin", "lat": "51.39440", "lon": "23.19243", "postalCode": "22-234"}, {"name": "Urz\u0119d\u00f3w", "lat": "50.99367", "lon": "22.14434", "postalCode": "23-250"}, {"name": "Werbkowice", "lat": "50.75315", "lon": "23.76874", "postalCode": "22-550"}, {"name": "Wisznice", "lat": "51.78815", "lon": "23.20994", "postalCode": "21-580"}, {"name": "Wohy\u0144", "lat": "51.75580", "lon": "22.78592", "postalCode": "21-310"}, {"name": "Wojcieszk\u00f3w", "lat": "51.76784", "lon": "22.31634", "postalCode": "21-411"}, {"name": "W\u0105wolnica", "lat": "51.29365", "lon": "22.14823", "postalCode": "24-160"}, {"name": "W\u0142odawa", "lat": "51.55029", "lon": "23.55280", "postalCode": "22-200"}, {"name": "Zamo\u015b\u0107", "lat": "50.72105", "lon": "23.26006", "postalCode": "22-401"}, {"name": "Zwierzyniec", "lat": "50.61092", "lon": "22.97321", "postalCode": "22-470"}, {"name": "\u0106mi\u0142\u00f3w", "lat": "51.16124", "lon": "22.58372", "postalCode": "20-388"}, {"name": "\u0141abunie", "lat": "50.65210", "lon": "23.37062", "postalCode": "22-437"}, {"name": "\u0141aszcz\u00f3w", "lat": "50.52906", "lon": "23.71868", "postalCode": "22-650"}, {"name": "\u0141opiennik G\u00f3rny", "lat": "51.04243", "lon": "23.01939", "postalCode": "22-351"}, {"name": "\u0141uk\u00f3w", "lat": "51.93176", "lon": "22.37845", "postalCode": "21-400"}, {"name": "\u0141\u0119czna", "lat": "51.30222", "lon": "22.87957", "postalCode": "21-010"}, {"name": "\u015awidnik", "lat": "51.20013", "lon": "22.69477", "postalCode": "21-047"}, {"name": "\u017b\u00f3\u0142kiewka", "lat": "50.90912", "lon": "22.83541", "postalCode": "22-335"}, {"name": "Babimost", "lat": "52.16372", "lon": "15.83053", "postalCode": "66-110"}, {"name": "Baczyna", "lat": "52.75459", "lon": "15.11559", "postalCode": "66-432"}, {"name": "Bobrowniki", "lat": "51.86328", "lon": "15.73815", "postalCode": "67-106"}, {"name": "Bogdaniec", "lat": "52.68865", "lon": "15.07064", "postalCode": "66-450"}, {"name": "Bor\u00f3w Wielki", "lat": "51.67892", "lon": "15.63420", "postalCode": "67-125"}, {"name": "Brzozowiec", "lat": "52.65412", "lon": "15.37441", "postalCode": "66-446"}, {"name": "Bytom Odrza\u0144ski", "lat": "51.73095", "lon": "15.82706", "postalCode": "67-115"}, {"name": "Chwal\u0119cice", "lat": "52.76792", "lon": "15.20820", "postalCode": "66-415"}, {"name": "Cybinka", "lat": "52.19416", "lon": "14.79715", "postalCode": "69-108"}, {"name": "Czerwie\u0144sk", "lat": "52.01301", "lon": "15.42311", "postalCode": "66-016"}, {"name": "Deszczno", "lat": "52.66960", "lon": "15.31997", "postalCode": "66-446"}, {"name": "Dobiegniew", "lat": "52.96982", "lon": "15.75364", "postalCode": "66-520"}, {"name": "Drezdenko", "lat": "52.83655", "lon": "15.83316", "postalCode": "66-530"}, {"name": "Droszk\u00f3w", "lat": "51.93104", "lon": "15.66181", "postalCode": "66-003"}, {"name": "Drzonk\u00f3w", "lat": "51.89132", "lon": "15.56991", "postalCode": "65-001"}, {"name": "D\u0105br\u00f3wka Wielkopolska", "lat": "52.27901", "lon": "15.80890", "postalCode": "66-210"}, {"name": "Gorz\u00f3w Wielkopolski", "lat": "52.72918", "lon": "15.24028", "postalCode": "66-400"}, {"name": "Gozdnica", "lat": "51.43689", "lon": "15.09736", "postalCode": "68-130"}, {"name": "Grabik", "lat": "51.65369", "lon": "15.11979", "postalCode": "68-200"}, {"name": "Gubin", "lat": "51.94796", "lon": "14.73707", "postalCode": "66-620"}, {"name": "G\u00f3rzyca", "lat": "52.49387", "lon": "14.65541", "postalCode": "69-113"}, {"name": "I\u0142owa", "lat": "51.50268", "lon": "15.20213", "postalCode": "68-120"}, {"name": "Janczewo", "lat": "52.75608", "lon": "15.34848", "postalCode": "66-431"}, {"name": "Jasie\u0144", "lat": "51.75000", "lon": "15.01667", "postalCode": "68-320"}, {"name": "Jenin", "lat": "52.69771", "lon": "15.10425", "postalCode": "66-450"}, {"name": "Kargowa", "lat": "52.07172", "lon": "15.87120", "postalCode": "66-120"}, {"name": "Konin \u017baga\u0144ski", "lat": "51.54557", "lon": "15.20291", "postalCode": "68-121"}, {"name": "Konotop", "lat": "51.88893", "lon": "16.05857", "postalCode": "67-410"}, {"name": "Kostrzyn nad Odr\u0105", "lat": "52.58761", "lon": "14.65188", "postalCode": "66-470"}, {"name": "Ko\u017cuch\u00f3w", "lat": "51.74403", "lon": "15.59733", "postalCode": "67-120"}, {"name": "Krosno Odrza\u0144skie", "lat": "52.05004", "lon": "15.09726", "postalCode": "66-600"}, {"name": "Krzeszyce", "lat": "52.58315", "lon": "15.00978", "postalCode": "66-435"}, {"name": "Kunowice", "lat": "52.35049", "lon": "14.63490", "postalCode": "69-100"}, {"name": "K\u0142odawa", "lat": "52.78592", "lon": "15.21497", "postalCode": "66-415"}, {"name": "Lipinki \u0141u\u017cyckie", "lat": "51.64062", "lon": "15.00591", "postalCode": "68-213"}, {"name": "Lubiszyn", "lat": "52.78202", "lon": "14.95051", "postalCode": "66-433"}, {"name": "Lubniewice", "lat": "52.51478", "lon": "15.25179", "postalCode": "69-210"}, {"name": "Lubrza", "lat": "52.30447", "lon": "15.44429", "postalCode": "66-218"}, {"name": "Lubsko", "lat": "51.78453", "lon": "14.97317", "postalCode": "68-300"}, {"name": "Marzenin", "lat": "52.80270", "lon": "15.88401", "postalCode": "66-530"}, {"name": "Maszewo", "lat": "52.66277", "lon": "15.31137", "postalCode": "66-446"}, {"name": "Ma\u0142omice", "lat": "51.55430", "lon": "15.44712", "postalCode": "67-320"}, {"name": "Mirocin G\u00f3rny", "lat": "51.75164", "lon": "15.51692", "postalCode": "67-120"}, {"name": "Mi\u0119dzyrzecz", "lat": "52.44649", "lon": "15.57687", "postalCode": "66-300"}, {"name": "Modrzyca", "lat": "51.83483", "lon": "15.71613", "postalCode": "67-106"}, {"name": "Murzynowo", "lat": "52.60095", "lon": "15.49937", "postalCode": "66-440"}, {"name": "Niegos\u0142awice", "lat": "51.58734", "lon": "15.71403", "postalCode": "67-312"}, {"name": "Nowa S\u00f3l", "lat": "51.80328", "lon": "15.72150", "postalCode": "67-100"}, {"name": "Nowe Kramsko", "lat": "52.16396", "lon": "15.81895", "postalCode": "66-110"}, {"name": "Nowe Miasteczko", "lat": "51.68999", "lon": "15.73354", "postalCode": "67-124"}, {"name": "Nowiny Wielkie", "lat": "52.67104", "lon": "15.00488", "postalCode": "66-460"}, {"name": "Nowogr\u00f3d Bobrza\u0144ski", "lat": "51.79805", "lon": "15.23880", "postalCode": "66-010"}, {"name": "Nowy Kisielin", "lat": "51.93176", "lon": "15.61178", "postalCode": "66-002"}, {"name": "Ochla", "lat": "51.87780", "lon": "15.47123", "postalCode": "65-001"}, {"name": "Oty\u0144", "lat": "51.84583", "lon": "15.70943", "postalCode": "67-106"}, {"name": "O\u015bno Lubuskie", "lat": "52.45371", "lon": "14.87538", "postalCode": "69-220"}, {"name": "Przylep", "lat": "51.96727", "lon": "15.45097", "postalCode": "65-001"}, {"name": "Przytoczna", "lat": "52.57702", "lon": "15.67899", "postalCode": "66-340"}, {"name": "Pszczew", "lat": "52.48566", "lon": "15.77601", "postalCode": "66-330"}, {"name": "Pyrzany", "lat": "52.65703", "lon": "14.97136", "postalCode": "66-460"}, {"name": "P\u0142oty", "lat": "51.98761", "lon": "15.41320", "postalCode": "66-016"}, {"name": "Racula", "lat": "51.90799", "lon": "15.57243", "postalCode": "65-001"}, {"name": "Rzepin", "lat": "52.34816", "lon": "14.83096", "postalCode": "69-110"}, {"name": "Siedlisko", "lat": "51.76621", "lon": "15.80915", "postalCode": "67-112"}, {"name": "Skwierzyna", "lat": "52.59321", "lon": "15.49977", "postalCode": "66-440"}, {"name": "Sk\u0105pe", "lat": "52.15226", "lon": "15.46091", "postalCode": "66-213"}, {"name": "Solniki", "lat": "51.71860", "lon": "15.65547", "postalCode": "67-120"}, {"name": "Stare Kurowo", "lat": "52.85664", "lon": "15.67774", "postalCode": "66-540"}, {"name": "Stary Kisielin", "lat": "51.93301", "lon": "15.58450", "postalCode": "65-001"}, {"name": "Strzelce Kraje\u0144skie", "lat": "52.87728", "lon": "15.53251", "postalCode": "66-500"}, {"name": "Sulech\u00f3w", "lat": "52.08394", "lon": "15.62267", "postalCode": "66-100"}, {"name": "Sul\u0119cin", "lat": "52.44214", "lon": "15.11792", "postalCode": "69-200"}, {"name": "Szczaniec", "lat": "52.26877", "lon": "15.68469", "postalCode": "66-225"}, {"name": "Szlichtyngowa", "lat": "51.71105", "lon": "16.24620", "postalCode": "67-407"}, {"name": "Szprotawa", "lat": "51.56400", "lon": "15.53620", "postalCode": "67-300"}, {"name": "S\u0142awa", "lat": "51.87599", "lon": "16.07472", "postalCode": "67-410"}, {"name": "S\u0142o\u0144sk", "lat": "52.56407", "lon": "14.80526", "postalCode": "66-436"}, {"name": "S\u0142ubice", "lat": "52.35254", "lon": "14.57418", "postalCode": "69-100"}, {"name": "Trzciel", "lat": "52.36678", "lon": "15.88262", "postalCode": "66-320"}, {"name": "Trzebiel", "lat": "51.63333", "lon": "14.81667", "postalCode": "68-212"}, {"name": "Tuplice", "lat": "51.67324", "lon": "14.83592", "postalCode": "68-219"}, {"name": "Witnica", "lat": "52.67311", "lon": "14.89903", "postalCode": "66-460"}, {"name": "Wschowa", "lat": "51.80230", "lon": "16.31961", "postalCode": "67-400"}, {"name": "W\u0119drzyn", "lat": "52.44050", "lon": "15.20884", "postalCode": "69-200"}, {"name": "Zatonie", "lat": "51.86007", "lon": "15.56323", "postalCode": "66-004"}, {"name": "Zb\u0105szynek", "lat": "52.24454", "lon": "15.81807", "postalCode": "66-210"}, {"name": "Zielona G\u00f3ra", "lat": "51.94633", "lon": "15.49585", "postalCode": "65-010"}, {"name": "Zwierzyn", "lat": "52.83732", "lon": "15.58498", "postalCode": "66-542"}, {"name": "\u0141ag\u00f3w", "lat": "52.33647", "lon": "15.30001", "postalCode": "66-220"}, {"name": "\u0141\u0119knica", "lat": "51.53630", "lon": "14.73919", "postalCode": "68-208"}, {"name": "\u0141\u0119\u017cyca", "lat": "51.99379", "lon": "15.47798", "postalCode": "66-016"}, {"name": "\u015awidnica", "lat": "51.88948", "lon": "15.39645", "postalCode": "66-008"}, {"name": "\u015awiebodzin", "lat": "52.24790", "lon": "15.53585", "postalCode": "66-200"}, {"name": "\u017baga\u0144", "lat": "51.61666", "lon": "15.31667", "postalCode": "68-100"}, {"name": "\u017bary", "lat": "51.64034", "lon": "15.12432", "postalCode": "68-200"}, {"name": "Aleksandr\u00f3w \u0141\u00f3dzki", "lat": "51.81836", "lon": "19.30549", "postalCode": "95-070"}, {"name": "Andrespol", "lat": "51.72416", "lon": "19.64053", "postalCode": "95-020"}, {"name": "Be\u0142chat\u00f3w", "lat": "51.36614", "lon": "19.37201", "postalCode": "97-400"}, {"name": "Be\u0142ch\u00f3w", "lat": "52.02249", "lon": "20.05865", "postalCode": "99-418"}, {"name": "Bia\u0142a Rawska", "lat": "51.80746", "lon": "20.47479", "postalCode": "96-230"}, {"name": "Boles\u0142awiec", "lat": "51.19455", "lon": "18.19259", "postalCode": "98-430"}, {"name": "Brzeziny", "lat": "51.79951", "lon": "19.75364", "postalCode": "95-060"}, {"name": "Buczek", "lat": "51.50288", "lon": "19.16603", "postalCode": "98-113"}, {"name": "Bukowiec", "lat": "51.70100", "lon": "19.66175", "postalCode": "95-006"}, {"name": "Burzenin", "lat": "51.45876", "lon": "18.83505", "postalCode": "98-260"}, {"name": "B\u0119dk\u00f3w", "lat": "51.58682", "lon": "19.74675", "postalCode": "97-319"}, {"name": "B\u0142aszki", "lat": "51.65194", "lon": "18.43639", "postalCode": "98-235"}, {"name": "Czestk\u00f3w B", "lat": "51.54114", "lon": "19.13984", "postalCode": "09-113"}, {"name": "Dobro\u0144", "lat": "51.63814", "lon": "19.24614", "postalCode": "95-082"}, {"name": "Dobryszyce", "lat": "51.14601", "lon": "19.40990", "postalCode": "97-505"}, {"name": "Drzewica", "lat": "51.44957", "lon": "20.47827", "postalCode": "26-340"}, {"name": "Dzia\u0142oszyn", "lat": "51.11666", "lon": "18.86667", "postalCode": "98-355"}, {"name": "D\u0142ut\u00f3w", "lat": "51.55779", "lon": "19.39388", "postalCode": "95-081"}, {"name": "Galewice", "lat": "51.34246", "lon": "18.25632", "postalCode": "98-405"}, {"name": "Ga\u0142k\u00f3w Ma\u0142y", "lat": "51.71825", "lon": "19.72276", "postalCode": "95-041"}, {"name": "Glinnik", "lat": "51.88954", "lon": "19.50234", "postalCode": "95-002"}, {"name": "Gomunice", "lat": "51.16792", "lon": "19.48671", "postalCode": "97-545"}, {"name": "Gorzkowice", "lat": "51.21498", "lon": "19.60134", "postalCode": "97-350"}, {"name": "Grab\u00f3w", "lat": "52.12903", "lon": "19.01124", "postalCode": "99-150"}, {"name": "G\u0142owno", "lat": "51.97095", "lon": "19.71004", "postalCode": "95-015"}, {"name": "Jastrz\u0119bia", "lat": "52.09702", "lon": "19.90870", "postalCode": "99-400"}, {"name": "Je\u017c\u00f3w", "lat": "51.81340", "lon": "19.97094", "postalCode": "95-047"}, {"name": "Justyn\u00f3w", "lat": "51.72466", "lon": "19.68516", "postalCode": "95-020"}, {"name": "Kamie\u0144sk", "lat": "51.20296", "lon": "19.49722", "postalCode": "97-360"}, {"name": "Kleszcz\u00f3w", "lat": "51.22468", "lon": "19.30511", "postalCode": "97-410"}, {"name": "Kluki", "lat": "51.34190", "lon": "19.23574", "postalCode": "97-415"}, {"name": "Kolonia Grabost\u00f3w", "lat": "51.46267", "lon": "19.31554", "postalCode": "97-425"}, {"name": "Koluszki", "lat": "51.74378", "lon": "19.82106", "postalCode": "95-042"}, {"name": "Konstantyn\u00f3w \u0141\u00f3dzki", "lat": "51.74644", "lon": "19.32674", "postalCode": "95-059"}, {"name": "Kro\u015bniewice", "lat": "52.25537", "lon": "19.17264", "postalCode": "99-340"}, {"name": "Ksawer\u00f3w", "lat": "51.68156", "lon": "19.40394", "postalCode": "95-054"}, {"name": "Kutno", "lat": "52.23188", "lon": "19.35362", "postalCode": "80-549"}, {"name": "Lipce Reymontowskie", "lat": "51.89969", "lon": "19.94369", "postalCode": "96-127"}, {"name": "Lubochnia", "lat": "51.61081", "lon": "20.04281", "postalCode": "97-217"}, {"name": "Lutomiersk", "lat": "51.75337", "lon": "19.21265", "postalCode": "95-083"}, {"name": "Lutut\u00f3w", "lat": "51.37136", "lon": "18.43640", "postalCode": "98-360"}, {"name": "Mokrsko", "lat": "51.17704", "lon": "18.48226", "postalCode": "98-345"}, {"name": "Moszczenica", "lat": "51.50241", "lon": "19.71599", "postalCode": "97-310"}, {"name": "Opoczno", "lat": "51.37765", "lon": "20.28672", "postalCode": "26-300"}, {"name": "Osiedle Niewiad\u00f3w", "lat": "51.61374", "lon": "19.92479", "postalCode": "97-225"}, {"name": "Osjak\u00f3w", "lat": "51.28793", "lon": "18.79275", "postalCode": "98-320"}, {"name": "Ozork\u00f3w", "lat": "51.96938", "lon": "19.29287", "postalCode": "95-035"}, {"name": "Pabianice", "lat": "51.66370", "lon": "19.35685", "postalCode": "95-200"}, {"name": "Paj\u0119czno", "lat": "51.14574", "lon": "18.99867", "postalCode": "98-330"}, {"name": "Piotrk\u00f3w Trybunalski", "lat": "51.40776", "lon": "19.69326", "postalCode": "97-300"}, {"name": "Pi\u0105tek", "lat": "52.06753", "lon": "19.48116", "postalCode": "99-120"}, {"name": "Podd\u0119bice", "lat": "51.89421", "lon": "18.95667", "postalCode": "99-200"}, {"name": "Przedb\u00f3rz", "lat": "51.08530", "lon": "19.87225", "postalCode": "97-570"}, {"name": "Radomsko", "lat": "51.06754", "lon": "19.44224", "postalCode": "97-500"}, {"name": "Rawa Mazowiecka", "lat": "51.76655", "lon": "20.25396", "postalCode": "96-200"}, {"name": "Rog\u00f3w", "lat": "51.81744", "lon": "19.88810", "postalCode": "95-063"}, {"name": "Rokiciny-Kolonia", "lat": "51.66802", "lon": "19.78713", "postalCode": "97-221"}, {"name": "Rozprza", "lat": "51.30143", "lon": "19.64818", "postalCode": "97-340"}, {"name": "Rusiec", "lat": "51.32532", "lon": "18.98790", "postalCode": "97-438"}, {"name": "Rzg\u00f3w", "lat": "51.66261", "lon": "19.49161", "postalCode": "95-030"}, {"name": "Rz\u0105\u015bnia", "lat": "51.22026", "lon": "19.04284", "postalCode": "98-332"}, {"name": "R\u0105bie\u0144", "lat": "51.81796", "lon": "19.29880", "postalCode": "95-070"}, {"name": "Sieradz", "lat": "51.59442", "lon": "18.73288", "postalCode": "98-200"}, {"name": "Skierniewice", "lat": "51.95949", "lon": "20.14328", "postalCode": "96-100"}, {"name": "Sokolniki", "lat": "51.30644", "lon": "18.33911", "postalCode": "98-420"}, {"name": "Starowa G\u00f3ra", "lat": "51.68890", "lon": "19.48080", "postalCode": "95-030"}, {"name": "Stryk\u00f3w", "lat": "51.90075", "lon": "19.60659", "postalCode": "95-010"}, {"name": "Strzelce Wielkie", "lat": "51.13709", "lon": "19.14550", "postalCode": "98-337"}, {"name": "Sulej\u00f3w", "lat": "51.35318", "lon": "19.88661", "postalCode": "97-330"}, {"name": "Sulmierzyce", "lat": "51.18502", "lon": "19.20136", "postalCode": "98-338"}, {"name": "Szadek", "lat": "51.69191", "lon": "18.98170", "postalCode": "98-240"}, {"name": "Szczerc\u00f3w", "lat": "51.33216", "lon": "19.11027", "postalCode": "97-420"}, {"name": "S\u0119dziejowice", "lat": "51.50908", "lon": "19.02594", "postalCode": "98-160"}, {"name": "Tomasz\u00f3w Mazowiecki", "lat": "51.53174", "lon": "20.01097", "postalCode": "97-200"}, {"name": "Tr\u0119baczew", "lat": "51.13112", "lon": "18.92302", "postalCode": "98-355"}, {"name": "Tuszyn", "lat": "51.60254", "lon": "19.54667", "postalCode": "95-080"}, {"name": "Ujazd", "lat": "51.59278", "lon": "19.92882", "postalCode": "97-225"}, {"name": "Uniej\u00f3w", "lat": "51.97289", "lon": "18.79270", "postalCode": "99-210"}, {"name": "Warta", "lat": "51.70702", "lon": "18.62770", "postalCode": "98-290"}, {"name": "Wartkowice", "lat": "51.97550", "lon": "19.00567", "postalCode": "99-220"}, {"name": "Widawa", "lat": "51.43822", "lon": "18.94650", "postalCode": "98-170"}, {"name": "Wielu\u0144", "lat": "51.22041", "lon": "18.57114", "postalCode": "98-300"}, {"name": "Wierusz\u00f3w", "lat": "51.29482", "lon": "18.16231", "postalCode": "98-400"}, {"name": "Wi\u015bniowa G\u00f3ra", "lat": "51.71204", "lon": "19.63029", "postalCode": "95-020"}, {"name": "Wola Krzysztoporska", "lat": "51.34289", "lon": "19.58416", "postalCode": "97-371"}, {"name": "Wolb\u00f3rz", "lat": "51.49913", "lon": "19.83468", "postalCode": "97-320"}, {"name": "W\u00f3jcin", "lat": "51.17379", "lon": "18.24701", "postalCode": "98-432"}, {"name": "W\u0142odzimierz\u00f3w", "lat": "51.37181", "lon": "19.82607", "postalCode": "97-330"}, {"name": "Zdu\u0144ska Wola", "lat": "51.60113", "lon": "18.93772", "postalCode": "98-220"}, {"name": "Zel\u00f3w", "lat": "51.46667", "lon": "19.21667", "postalCode": "97-425"}, {"name": "Zgierz", "lat": "51.85836", "lon": "19.40687", "postalCode": "95-100"}, {"name": "Z\u0142oczew", "lat": "51.41622", "lon": "18.60628", "postalCode": "98-270"}, {"name": "\u0141ask", "lat": "51.59124", "lon": "19.13231", "postalCode": "98-100"}, {"name": "\u0141owicz", "lat": "52.11090", "lon": "19.95112", "postalCode": "99-400"}, {"name": "\u0141yszkowice", "lat": "51.98509", "lon": "19.90884", "postalCode": "99-420"}, {"name": "\u0141\u00f3d\u017a", "lat": "51.75949", "lon": "19.43180", "postalCode": "94-015"}, {"name": "\u0141\u0119czyca", "lat": "52.06173", "lon": "19.18911", "postalCode": "99-100"}, {"name": "\u017barn\u00f3w", "lat": "51.24687", "lon": "20.17361", "postalCode": "26-330"}, {"name": "\u017bychlin", "lat": "52.24249", "lon": "19.63822", "postalCode": "99-320"}, {"name": "Alwernia", "lat": "50.05917", "lon": "19.52896", "postalCode": "32-566"}, {"name": "Andrych\u00f3w", "lat": "49.85425", "lon": "19.34213", "postalCode": "34-120"}, {"name": "Babice", "lat": "50.06890", "lon": "19.45166", "postalCode": "32-551"}, {"name": "Bia\u0142y Dunajec", "lat": "49.37840", "lon": "20.01330", "postalCode": "34-425"}, {"name": "Biecz", "lat": "49.73277", "lon": "21.25582", "postalCode": "38-340"}, {"name": "Bobowa", "lat": "49.70730", "lon": "20.94532", "postalCode": "38-350"}, {"name": "Bochnia", "lat": "49.96765", "lon": "20.43205", "postalCode": "32-700"}, {"name": "Boles\u0142aw", "lat": "50.29738", "lon": "19.48459", "postalCode": "32-329"}, {"name": "Brzesko", "lat": "49.96744", "lon": "20.60817", "postalCode": "32-800"}, {"name": "Brzeszcze", "lat": "49.98318", "lon": "19.14645", "postalCode": "32-620"}, {"name": "Brzezna", "lat": "49.60315", "lon": "20.61388", "postalCode": "33-386"}, {"name": "Bukowno", "lat": "50.26216", "lon": "19.46459", "postalCode": "32-332"}, {"name": "Bulowice", "lat": "49.87874", "lon": "19.28374", "postalCode": "32-652"}, {"name": "Che\u0142mek", "lat": "50.10023", "lon": "19.25601", "postalCode": "32-660"}, {"name": "Che\u0142miec", "lat": "49.63004", "lon": "20.66539", "postalCode": "33-395"}, {"name": "Chocznia", "lat": "49.87276", "lon": "19.45808", "postalCode": "34-123"}, {"name": "Chrzan\u00f3w", "lat": "50.13958", "lon": "19.40482", "postalCode": "32-500"}, {"name": "Ci\u0119\u017ckowice", "lat": "49.78497", "lon": "20.97665", "postalCode": "33-190"}, {"name": "Czch\u00f3w", "lat": "49.83485", "lon": "20.67580", "postalCode": "32-860"}, {"name": "Czernich\u00f3w", "lat": "49.98777", "lon": "19.67953", "postalCode": "32-070"}, {"name": "Dobczyce", "lat": "49.87888", "lon": "20.09501", "postalCode": "32-410"}, {"name": "Dobra", "lat": "49.71717", "lon": "20.25174", "postalCode": "34-642"}, {"name": "D\u0105browa Tarnowska", "lat": "50.17459", "lon": "20.98753", "postalCode": "33-200"}, {"name": "Gd\u00f3w", "lat": "49.90776", "lon": "20.20042", "postalCode": "32-420"}, {"name": "Gorlice", "lat": "49.65661", "lon": "21.16355", "postalCode": "38-300"}, {"name": "Gorz\u00f3w", "lat": "50.07353", "lon": "19.23543", "postalCode": "32-661"}, {"name": "Gryb\u00f3w", "lat": "49.62346", "lon": "20.94462", "postalCode": "38-330"}, {"name": "Jab\u0142onka", "lat": "49.47925", "lon": "19.69620", "postalCode": "34-480"}, {"name": "Jadowniki", "lat": "49.96806", "lon": "20.64537", "postalCode": "32-851"}, {"name": "Jawiszowice", "lat": "49.96395", "lon": "19.14112", "postalCode": "32-626"}, {"name": "Jordan\u00f3w", "lat": "49.65015", "lon": "19.83262", "postalCode": "34-240"}, {"name": "Kalwaria Zebrzydowska", "lat": "49.86724", "lon": "19.67761", "postalCode": "34-130"}, {"name": "Klucze", "lat": "50.33529", "lon": "19.56482", "postalCode": "32-310"}, {"name": "Kocmyrz\u00f3w", "lat": "50.12803", "lon": "20.12959", "postalCode": "32-010"}, {"name": "Krak\u00f3w", "lat": "50.07567", "lon": "19.93084", "postalCode": "30-006"}, {"name": "Krynica-Zdr\u00f3j", "lat": "49.42088", "lon": "20.96066", "postalCode": "33-380"}, {"name": "Krzeszowice", "lat": "50.13497", "lon": "19.63131", "postalCode": "32-065"}, {"name": "K\u0119ty", "lat": "49.88103", "lon": "19.22331", "postalCode": "32-650"}, {"name": "K\u0142aj", "lat": "49.99274", "lon": "20.30190", "postalCode": "32-015"}, {"name": "Libi\u0105\u017c", "lat": "50.09915", "lon": "19.31389", "postalCode": "32-590"}, {"name": "Limanowa", "lat": "49.73718", "lon": "20.40680", "postalCode": "34-600"}, {"name": "Lipnica Wielka", "lat": "49.48472", "lon": "19.62836", "postalCode": "34-483"}, {"name": "Liszki", "lat": "50.03741", "lon": "19.77143", "postalCode": "32-060"}, {"name": "Mak\u00f3w Podhala\u0144ski", "lat": "49.72890", "lon": "19.68129", "postalCode": "34-220"}, {"name": "Micha\u0142owice", "lat": "50.16536", "lon": "19.98053", "postalCode": "32-091"}, {"name": "Miech\u00f3w", "lat": "50.35000", "lon": "20.03333", "postalCode": "32-200"}, {"name": "Mogilany", "lat": "49.93962", "lon": "19.88948", "postalCode": "32-031"}, {"name": "Mszana Dolna", "lat": "49.67489", "lon": "20.08108", "postalCode": "34-730"}, {"name": "Muszyna", "lat": "49.35321", "lon": "20.89713", "postalCode": "33-370"}, {"name": "My\u015blenice", "lat": "49.83378", "lon": "19.94242", "postalCode": "32-400"}, {"name": "Nied\u017awied\u017a", "lat": "49.61979", "lon": "20.07697", "postalCode": "34-735"}, {"name": "Niepo\u0142omice", "lat": "50.02987", "lon": "20.21920", "postalCode": "32-005"}, {"name": "Nowa Wie\u015b", "lat": "49.90662", "lon": "19.21835", "postalCode": "32-651"}, {"name": "Nowy S\u0105cz", "lat": "49.62940", "lon": "20.69075", "postalCode": "33-304"}, {"name": "Nowy Targ", "lat": "49.48062", "lon": "20.03047", "postalCode": "34-400"}, {"name": "Nowy Wi\u015bnicz", "lat": "49.91388", "lon": "20.46313", "postalCode": "32-720"}, {"name": "Olkusz", "lat": "50.27441", "lon": "19.57633", "postalCode": "32-300"}, {"name": "Osiek", "lat": "49.94977", "lon": "19.26692", "postalCode": "32-608"}, {"name": "O\u015bwi\u0119cim", "lat": "50.03574", "lon": "19.22832", "postalCode": "32-602"}, {"name": "Piwniczna-Zdr\u00f3j", "lat": "49.43897", "lon": "20.71791", "postalCode": "33-350"}, {"name": "Podegrodzie", "lat": "49.57487", "lon": "20.59088", "postalCode": "33-386"}, {"name": "Poronin", "lat": "49.34039", "lon": "20.00395", "postalCode": "34-520"}, {"name": "Proszowice", "lat": "50.19105", "lon": "20.29603", "postalCode": "32-100"}, {"name": "Przecisz\u00f3w", "lat": "50.00562", "lon": "19.37068", "postalCode": "32-641"}, {"name": "Rabka-Zdr\u00f3j", "lat": "49.60798", "lon": "19.97072", "postalCode": "34-700"}, {"name": "Ropa", "lat": "49.59931", "lon": "21.04669", "postalCode": "38-312"}, {"name": "Siepraw", "lat": "49.90853", "lon": "19.96124", "postalCode": "32-447"}, {"name": "Skawina", "lat": "49.97582", "lon": "19.82095", "postalCode": "32-050"}, {"name": "Ska\u0142a", "lat": "50.23005", "lon": "19.85481", "postalCode": "32-043"}, {"name": "Skomielna Bia\u0142a", "lat": "49.63515", "lon": "19.92697", "postalCode": "32-434"}, {"name": "Spytkowice", "lat": "49.97678", "lon": "19.50361", "postalCode": "34-116"}, {"name": "Stary S\u0105cz", "lat": "49.56054", "lon": "20.63727", "postalCode": "33-340"}, {"name": "Sucha Beskidzka", "lat": "49.74090", "lon": "19.59471", "postalCode": "34-200"}, {"name": "Su\u0142kowice", "lat": "49.84061", "lon": "19.80243", "postalCode": "32-440"}, {"name": "Szar\u00f3w", "lat": "49.99428", "lon": "20.27184", "postalCode": "32-014"}, {"name": "Szczawnica", "lat": "49.42466", "lon": "20.47816", "postalCode": "34-460"}, {"name": "Szczucin", "lat": "50.30877", "lon": "21.07878", "postalCode": "33-230"}, {"name": "S\u0142omniki", "lat": "50.24017", "lon": "20.08470", "postalCode": "32-090"}, {"name": "Tarn\u00f3w", "lat": "50.04567", "lon": "20.99642", "postalCode": "33-104"}, {"name": "Trzebinia", "lat": "50.15554", "lon": "19.46795", "postalCode": "32-540"}, {"name": "Tuch\u00f3w", "lat": "49.89061", "lon": "21.05565", "postalCode": "33-170"}, {"name": "Tymbark", "lat": "49.72957", "lon": "20.32071", "postalCode": "34-650"}, {"name": "Wadowice", "lat": "49.88272", "lon": "19.48451", "postalCode": "34-100"}, {"name": "Wieliczka", "lat": "49.98608", "lon": "20.06512", "postalCode": "32-020"}, {"name": "Wojnicz", "lat": "49.95777", "lon": "20.83870", "postalCode": "32-830"}, {"name": "Wola Filipowska", "lat": "50.13238", "lon": "19.58207", "postalCode": "35-067"}, {"name": "Wola Rz\u0119dzi\u0144ska", "lat": "50.03711", "lon": "21.06447", "postalCode": "33-150"}, {"name": "Wolbrom", "lat": "50.38422", "lon": "19.75610", "postalCode": "32-340"}, {"name": "Zabierz\u00f3w", "lat": "50.11420", "lon": "19.80253", "postalCode": "32-080"}, {"name": "Zakliczyn", "lat": "49.85615", "lon": "20.80723", "postalCode": "32-840"}, {"name": "Zakopane", "lat": "49.29631", "lon": "19.94747", "postalCode": "34-500"}, {"name": "Zator", "lat": "49.99452", "lon": "19.43781", "postalCode": "32-640"}, {"name": "Zawoja", "lat": "49.64978", "lon": "19.55148", "postalCode": "34-222"}, {"name": "Zielonki", "lat": "50.12416", "lon": "19.92206", "postalCode": "32-087"}, {"name": "\u0141apan\u00f3w", "lat": "49.86377", "lon": "20.29105", "postalCode": "32-740"}, {"name": "\u0141u\u017cna", "lat": "49.70999", "lon": "21.05176", "postalCode": "38-322"}, {"name": "\u0141\u0105cko", "lat": "49.55726", "lon": "20.43781", "postalCode": "33-390"}, {"name": "\u015awi\u0105tniki G\u00f3rne", "lat": "49.93332", "lon": "19.95221", "postalCode": "32-040"}, {"name": "\u017babno", "lat": "50.13138", "lon": "20.88850", "postalCode": "33-240"}, {"name": "Baboszewo", "lat": "52.68183", "lon": "20.26049", "postalCode": "09-130"}, {"name": "Bia\u0142obrzegi", "lat": "51.64990", "lon": "20.95349", "postalCode": "26-800"}, {"name": "Brwin\u00f3w", "lat": "52.14058", "lon": "20.71904", "postalCode": "05-840"}, {"name": "B\u0142onie", "lat": "52.19543", "lon": "20.61631", "postalCode": "05-870"}, {"name": "Chorzele", "lat": "53.25782", "lon": "20.89892", "postalCode": "06-330"}, {"name": "Chotom\u00f3w", "lat": "52.41005", "lon": "20.87223", "postalCode": "05-123"}, {"name": "Ciechan\u00f3w", "lat": "52.88043", "lon": "20.61429", "postalCode": "06-400"}, {"name": "Czosn\u00f3w", "lat": "52.38948", "lon": "20.73319", "postalCode": "05-152"}, {"name": "D\u0119be Wielkie", "lat": "52.19904", "lon": "21.44295", "postalCode": "05-311"}, {"name": "D\u0142ugosiod\u0142o", "lat": "52.75834", "lon": "21.59262", "postalCode": "07-210"}, {"name": "Garwolin", "lat": "51.89592", "lon": "21.61667", "postalCode": "08-400"}, {"name": "Gostynin", "lat": "52.42707", "lon": "19.46384", "postalCode": "09-500"}, {"name": "Grodzisk Mazowiecki", "lat": "52.10206", "lon": "20.62373", "postalCode": "05-827"}, {"name": "Gr\u00f3jec", "lat": "51.86509", "lon": "20.86831", "postalCode": "05-600"}, {"name": "G\u00f3ra Kalwaria", "lat": "51.98438", "lon": "21.21764", "postalCode": "05-530"}, {"name": "G\u0105bin", "lat": "52.39930", "lon": "19.73374", "postalCode": "09-530"}, {"name": "Halin\u00f3w", "lat": "52.22397", "lon": "21.35776", "postalCode": "05-074"}, {"name": "I\u0142\u017ca", "lat": "51.16103", "lon": "21.23484", "postalCode": "27-100"}, {"name": "Jab\u0142onna", "lat": "52.37479", "lon": "20.92602", "postalCode": "05-110"}, {"name": "Jedli\u0144sk", "lat": "51.51163", "lon": "21.12249", "postalCode": "26-660"}, {"name": "Jedlnia-Letnisko", "lat": "51.42874", "lon": "21.32862", "postalCode": "26-630"}, {"name": "Julian\u00f3w", "lat": "52.09888", "lon": "21.05432", "postalCode": "05-500"}, {"name": "J\u00f3zefos\u0142aw", "lat": "52.10732", "lon": "21.03996", "postalCode": "05-500"}, {"name": "J\u00f3zef\u00f3w", "lat": "52.14122", "lon": "21.22836", "postalCode": "05-420"}, {"name": "Karczew", "lat": "52.07813", "lon": "21.25156", "postalCode": "05-480"}, {"name": "Ka\u0142uszyn", "lat": "52.20751", "lon": "21.81170", "postalCode": "05-310"}, {"name": "Koby\u0142ka", "lat": "52.33375", "lon": "21.20671", "postalCode": "05-230"}, {"name": "Komor\u00f3w", "lat": "52.14625", "lon": "20.81650", "postalCode": "05-806"}, {"name": "Konstancin-Jeziorna", "lat": "52.09094", "lon": "21.11776", "postalCode": "05-520"}, {"name": "Kotu\u0144", "lat": "52.17701", "lon": "22.07105", "postalCode": "08-130"}, {"name": "Kozienice", "lat": "51.59082", "lon": "21.54125", "postalCode": "26-900"}, {"name": "Legionowo", "lat": "52.41034", "lon": "20.91834", "postalCode": "05-120"}, {"name": "Leszno", "lat": "52.26534", "lon": "20.60887", "postalCode": "05-084"}, {"name": "Lipsko", "lat": "51.15690", "lon": "21.65048", "postalCode": "27-300"}, {"name": "Magdalenka", "lat": "52.08794", "lon": "20.93153", "postalCode": "05-506"}, {"name": "Mak\u00f3w Mazowiecki", "lat": "52.86491", "lon": "21.10416", "postalCode": "06-200"}, {"name": "Marki", "lat": "52.32129", "lon": "21.10589", "postalCode": "05-270"}, {"name": "Ma\u0142kinia G\u00f3rna", "lat": "52.69370", "lon": "22.02895", "postalCode": "07-320"}, {"name": "Milan\u00f3wek", "lat": "52.12458", "lon": "20.66721", "postalCode": "05-822"}, {"name": "Mi\u0144sk Mazowiecki", "lat": "52.18070", "lon": "21.55615", "postalCode": "05-300"}, {"name": "Mrozy", "lat": "52.16666", "lon": "21.81667", "postalCode": "05-320"}, {"name": "Mszczon\u00f3w", "lat": "51.97362", "lon": "20.51291", "postalCode": "96-320"}, {"name": "Mysiad\u0142o", "lat": "52.10268", "lon": "21.01949", "postalCode": "05-515"}, {"name": "Myszyniec", "lat": "53.38197", "lon": "21.34577", "postalCode": "07-430"}, {"name": "M\u0142awa", "lat": "53.11032", "lon": "20.35166", "postalCode": "06-500"}, {"name": "Nadarzyn", "lat": "52.09340", "lon": "20.80799", "postalCode": "05-830"}, {"name": "Nasielsk", "lat": "52.58396", "lon": "20.81004", "postalCode": "05-190"}, {"name": "Niepor\u0119t", "lat": "52.42796", "lon": "21.03394", "postalCode": "05-126"}, {"name": "Nowa Iwiczna", "lat": "52.09035", "lon": "20.99193", "postalCode": "05-500"}, {"name": "Nowy Dw\u00f3r Mazowiecki", "lat": "52.45230", "lon": "20.71922", "postalCode": "05-102"}, {"name": "Ostro\u0142\u0119ka", "lat": "53.11856", "lon": "21.66088", "postalCode": "07-401"}, {"name": "Ostr\u00f3w Mazowiecka", "lat": "52.80201", "lon": "21.89205", "postalCode": "07-300"}, {"name": "Otwock", "lat": "52.11672", "lon": "21.27743", "postalCode": "05-400"}, {"name": "O\u017car\u00f3w Mazowiecki", "lat": "52.20981", "lon": "20.80271", "postalCode": "05-850"}, {"name": "Piaseczno", "lat": "52.07434", "lon": "21.02062", "postalCode": "05-500"}, {"name": "Piast\u00f3w", "lat": "52.18444", "lon": "20.83997", "postalCode": "05-818"}, {"name": "Pilawa", "lat": "51.95892", "lon": "21.53057", "postalCode": "08-440"}, {"name": "Pionki", "lat": "51.46795", "lon": "21.44215", "postalCode": "26-670"}, {"name": "Podkowa Le\u015bna", "lat": "52.11807", "lon": "20.72987", "postalCode": "05-807"}, {"name": "Pomiech\u00f3wek", "lat": "52.47409", "lon": "20.72656", "postalCode": "05-180"}, {"name": "Pruszk\u00f3w", "lat": "52.15909", "lon": "20.81716", "postalCode": "05-801"}, {"name": "Przasnysz", "lat": "53.02025", "lon": "20.88425", "postalCode": "06-300"}, {"name": "Przysucha", "lat": "51.35738", "lon": "20.62977", "postalCode": "26-400"}, {"name": "Pu\u0142tusk", "lat": "52.70946", "lon": "21.08212", "postalCode": "06-100"}, {"name": "P\u0142ock", "lat": "52.54635", "lon": "19.70654", "postalCode": "09-402"}, {"name": "P\u0142o\u0144sk", "lat": "52.62115", "lon": "20.37632", "postalCode": "09-100"}, {"name": "Raci\u0105\u017c", "lat": "52.78333", "lon": "20.11667", "postalCode": "09-140"}, {"name": "Radom", "lat": "51.40071", "lon": "21.14834", "postalCode": "26-618"}, {"name": "Radzymin", "lat": "52.41666", "lon": "21.18333", "postalCode": "05-250"}, {"name": "Raszyn", "lat": "52.15709", "lon": "20.92681", "postalCode": "05-090"}, {"name": "Serock", "lat": "52.51177", "lon": "21.07217", "postalCode": "05-140"}, {"name": "Siedlce", "lat": "52.16823", "lon": "22.29119", "postalCode": "08-110"}, {"name": "Sierpc", "lat": "52.85417", "lon": "19.67141", "postalCode": "09-200"}, {"name": "Skaryszew", "lat": "51.31067", "lon": "21.25274", "postalCode": "26-640"}, {"name": "Sochaczew", "lat": "52.22891", "lon": "20.24062", "postalCode": "96-500"}, {"name": "Soko\u0142\u00f3w Podlaski", "lat": "52.40809", "lon": "22.24062", "postalCode": "08-300"}, {"name": "Stare Babice", "lat": "52.25060", "lon": "20.84308", "postalCode": "05-082"}, {"name": "Sulej\u00f3wek", "lat": "52.24817", "lon": "21.27694", "postalCode": "05-071"}, {"name": "Szyd\u0142owiec", "lat": "51.22262", "lon": "20.85963", "postalCode": "26-500"}, {"name": "Tarczyn", "lat": "51.98027", "lon": "20.83457", "postalCode": "05-555"}, {"name": "Teresin", "lat": "52.19938", "lon": "20.41891", "postalCode": "96-515"}, {"name": "T\u0142uszcz", "lat": "52.43049", "lon": "21.43784", "postalCode": "05-240"}, {"name": "Warka", "lat": "51.78439", "lon": "21.18743", "postalCode": "05-660"}, {"name": "Warszawa", "lat": "52.23614", "lon": "21.00817", "postalCode": "00-005"}, {"name": "Wieliszew", "lat": "52.45100", "lon": "20.96975", "postalCode": "05-135"}, {"name": "Wi\u0105zowna", "lat": "52.17360", "lon": "21.29502", "postalCode": "05-462"}, {"name": "Wo\u0142omin", "lat": "52.34547", "lon": "21.23894", "postalCode": "05-200"}, {"name": "Wyszk\u00f3w", "lat": "52.59905", "lon": "21.45920", "postalCode": "02-700"}, {"name": "W\u0119gr\u00f3w", "lat": "52.39919", "lon": "22.01953", "postalCode": "07-100"}, {"name": "Zbuczyn", "lat": "52.09396", "lon": "22.44095", "postalCode": "08-106"}, {"name": "Zielonka", "lat": "52.31011", "lon": "21.16025", "postalCode": "05-220"}, {"name": "Zwole\u0144", "lat": "51.35583", "lon": "21.58431", "postalCode": "26-700"}, {"name": "Z\u0105bki", "lat": "52.28983", "lon": "21.11357", "postalCode": "05-091"}, {"name": "\u0141askarzew", "lat": "51.78886", "lon": "21.59371", "postalCode": "08-450"}, {"name": "\u0141och\u00f3w", "lat": "52.53183", "lon": "21.69171", "postalCode": "07-130"}, {"name": "\u0141omianki", "lat": "52.33279", "lon": "20.90207", "postalCode": "05-092"}, {"name": "\u0141osice", "lat": "52.20845", "lon": "22.72119", "postalCode": "08-200"}, {"name": "\u017belech\u00f3w", "lat": "51.80831", "lon": "21.89837", "postalCode": "08-430"}, {"name": "\u017buromin", "lat": "53.06698", "lon": "19.91175", "postalCode": "09-300"}, {"name": "\u017byrard\u00f3w", "lat": "52.06065", "lon": "20.48961", "postalCode": "96-316"}, {"name": "Babor\u00f3w", "lat": "50.15504", "lon": "17.98670", "postalCode": "48-120"}, {"name": "Bia\u0142a", "lat": "50.38378", "lon": "17.66507", "postalCode": "48-210"}, {"name": "Bodzan\u00f3w Osiedle III", "lat": "50.31945", "lon": "17.38355", "postalCode": "48-340"}, {"name": "Bogacica", "lat": "50.96837", "lon": "18.13884", "postalCode": "46-243"}, {"name": "Brzeg", "lat": "50.86138", "lon": "17.47117", "postalCode": "49-306"}, {"name": "Byczyna", "lat": "51.11345", "lon": "18.21341", "postalCode": "46-220"}, {"name": "Chrz\u0105stowice", "lat": "50.66433", "lon": "18.07253", "postalCode": "46-053"}, {"name": "Chrz\u0105szczyce", "lat": "50.61233", "lon": "17.89469", "postalCode": "46-060"}, {"name": "Chr\u00f3\u015bcice", "lat": "50.78475", "lon": "17.81925", "postalCode": "46-080"}, {"name": "Chr\u00f3\u015bcina", "lat": "50.66482", "lon": "17.79916", "postalCode": "46-073"}, {"name": "Czarnow\u0105sy", "lat": "50.71746", "lon": "17.90895", "postalCode": "46-020"}, {"name": "Dalach\u00f3w", "lat": "51.07590", "lon": "18.59191", "postalCode": "46-325"}, {"name": "Daniec", "lat": "50.61925", "lon": "18.13882", "postalCode": "46-053"}, {"name": "Dobrodzie\u0144", "lat": "50.72669", "lon": "18.44549", "postalCode": "46-380"}, {"name": "Dobrze\u0144 Ma\u0142y", "lat": "50.74694", "lon": "17.86217", "postalCode": "46-081"}, {"name": "Dobrze\u0144 Wielki", "lat": "50.76699", "lon": "17.84878", "postalCode": "46-081"}, {"name": "Domecko", "lat": "50.61666", "lon": "17.86667", "postalCode": "46-060"}, {"name": "Dylaki", "lat": "50.72980", "lon": "18.19040", "postalCode": "46-043"}, {"name": "Dziergowice", "lat": "50.24019", "lon": "18.29168", "postalCode": "47-244"}, {"name": "D\u0105browa", "lat": "50.68830", "lon": "17.75877", "postalCode": "49-120"}, {"name": "Gogolin", "lat": "50.49264", "lon": "18.02078", "postalCode": "47-320"}, {"name": "Gorz\u00f3w \u015al\u0105ski", "lat": "51.02776", "lon": "18.42386", "postalCode": "46-310"}, {"name": "Grabin", "lat": "50.59638", "lon": "17.52388", "postalCode": "49-100"}, {"name": "Grodk\u00f3w", "lat": "50.69855", "lon": "17.38485", "postalCode": "49-200"}, {"name": "Grodziec", "lat": "50.70406", "lon": "18.28085", "postalCode": "46-040"}, {"name": "G\u0142og\u00f3wek", "lat": "50.35235", "lon": "17.86701", "postalCode": "48-250"}, {"name": "G\u0142ubczyce", "lat": "50.20064", "lon": "17.83074", "postalCode": "48-100"}, {"name": "G\u0142ucho\u0142azy", "lat": "50.31945", "lon": "17.38355", "postalCode": "48-340"}, {"name": "Izbicko", "lat": "50.57373", "lon": "18.15860", "postalCode": "47-180"}, {"name": "Jemielnica", "lat": "50.54181", "lon": "18.37785", "postalCode": "47-133"}, {"name": "Je\u0142owa", "lat": "50.79041", "lon": "18.06371", "postalCode": "46-024"}, {"name": "Kalin\u00f3w", "lat": "50.50461", "lon": "18.20454", "postalCode": "47-100"}, {"name": "Kamiennik", "lat": "50.57090", "lon": "17.15463", "postalCode": "48-388"}, {"name": "Kamie\u0144 \u015al\u0105ski", "lat": "50.54069", "lon": "18.07741", "postalCode": "47-325"}, {"name": "Kielcza", "lat": "50.57072", "lon": "18.55738", "postalCode": "47-126"}, {"name": "Kietrz", "lat": "50.08383", "lon": "18.00464", "postalCode": "48-130"}, {"name": "Kluczbork", "lat": "50.97266", "lon": "18.21523", "postalCode": "46-200"}, {"name": "Kolonowskie", "lat": "50.64899", "lon": "18.38628", "postalCode": "47-110"}, {"name": "Komprachcice", "lat": "50.63314", "lon": "17.82631", "postalCode": "46-070"}, {"name": "Korfant\u00f3w", "lat": "50.48744", "lon": "17.59775", "postalCode": "48-317"}, {"name": "Krapkowice", "lat": "50.47594", "lon": "17.95164", "postalCode": "47-303"}, {"name": "Krasiej\u00f3w", "lat": "50.66799", "lon": "18.24855", "postalCode": "46-040"}, {"name": "Kuni\u00f3w", "lat": "50.94619", "lon": "18.22641", "postalCode": "46-200"}, {"name": "K\u0105ty Opolskie", "lat": "50.55805", "lon": "17.97646", "postalCode": "46-050"}, {"name": "K\u0119dzierzyn-Ko\u017ale", "lat": "50.31475", "lon": "18.12836", "postalCode": "47-208"}, {"name": "K\u0119pa", "lat": "50.70793", "lon": "17.94529", "postalCode": "46-022"}, {"name": "Lewin Brzeski", "lat": "50.74775", "lon": "17.62224", "postalCode": "49-340"}, {"name": "Le\u015bnica", "lat": "50.42878", "lon": "18.18338", "postalCode": "47-150"}, {"name": "Lubsza", "lat": "50.91634", "lon": "17.51794", "postalCode": "49-313"}, {"name": "Mur\u00f3w", "lat": "50.86137", "lon": "17.94746", "postalCode": "46-030"}, {"name": "Namys\u0142\u00f3w", "lat": "51.07313", "lon": "17.72473", "postalCode": "46-140"}, {"name": "Niemodlin", "lat": "50.64122", "lon": "17.61752", "postalCode": "49-100"}, {"name": "Nogowczyce", "lat": "50.43844", "lon": "18.37035", "postalCode": "47-143"}, {"name": "Nowy \u015awi\u0119t\u00f3w", "lat": "50.37019", "lon": "17.36349", "postalCode": "48-330"}, {"name": "Nysa", "lat": "50.47625", "lon": "17.33254", "postalCode": "48-300"}, {"name": "Olesno", "lat": "50.87536", "lon": "18.41720", "postalCode": "46-300"}, {"name": "Opole", "lat": "50.66987", "lon": "17.91934", "postalCode": "45-007"}, {"name": "Otmuch\u00f3w", "lat": "50.46371", "lon": "17.17536", "postalCode": "48-385"}, {"name": "Ozimek", "lat": "50.67997", "lon": "18.22295", "postalCode": "46-040"}, {"name": "Paczk\u00f3w", "lat": "50.46245", "lon": "17.00951", "postalCode": "48-370"}, {"name": "Paw\u0142owiczki", "lat": "50.24502", "lon": "18.05083", "postalCode": "47-280"}, {"name": "Pludry", "lat": "50.67055", "lon": "18.47487", "postalCode": "46-375"}, {"name": "Pok\u00f3j", "lat": "50.90345", "lon": "17.83944", "postalCode": "46-034"}, {"name": "Polska Cerekiew", "lat": "50.22780", "lon": "18.12463", "postalCode": "47-260"}, {"name": "Polska Nowa Wie\u015b", "lat": "50.63963", "lon": "17.79676", "postalCode": "46-070"}, {"name": "Popiel\u00f3w", "lat": "50.82308", "lon": "17.74347", "postalCode": "46-090"}, {"name": "Praszka", "lat": "51.05747", "lon": "18.46793", "postalCode": "46-320"}, {"name": "Prudnik", "lat": "50.32856", "lon": "17.57751", "postalCode": "48-200"}, {"name": "Pr\u00f3szk\u00f3w", "lat": "50.57839", "lon": "17.87318", "postalCode": "46-060"}, {"name": "Rozwadza", "lat": "50.43523", "lon": "18.10135", "postalCode": "47-330"}, {"name": "Rudniki", "lat": "51.03821", "lon": "18.60162", "postalCode": "46-325"}, {"name": "Schodnia", "lat": "50.68090", "lon": "18.18480", "postalCode": "46-040"}, {"name": "Skarbimierz", "lat": "50.84345", "lon": "17.42261", "postalCode": "49-318"}, {"name": "Skarbimierz Osiedle", "lat": "50.83883", "lon": "17.42773", "postalCode": "49-318"}, {"name": "Skoroszyce", "lat": "50.59512", "lon": "17.38354", "postalCode": "48-320"}, {"name": "Staniszcze Ma\u0142e", "lat": "50.66445", "lon": "18.31814", "postalCode": "47-113"}, {"name": "Staniszcze Wielkie", "lat": "50.64825", "lon": "18.35186", "postalCode": "47-113"}, {"name": "Stare Budkowice", "lat": "50.86441", "lon": "18.06183", "postalCode": "46-030"}, {"name": "Stare Ko\u017ale", "lat": "50.31083", "lon": "18.22278", "postalCode": "47-223"}, {"name": "Stare Sio\u0142kowice", "lat": "50.80289", "lon": "17.76971", "postalCode": "46-083"}, {"name": "Strzelce Opolskie", "lat": "50.51342", "lon": "18.30473", "postalCode": "47-100"}, {"name": "Strzeleczki", "lat": "50.44874", "lon": "17.87229", "postalCode": "47-364"}, {"name": "Tarn\u00f3w Opolski", "lat": "50.57725", "lon": "18.08536", "postalCode": "46-050"}, {"name": "Turawa", "lat": "50.73796", "lon": "18.07537", "postalCode": "46-045"}, {"name": "Tu\u0142owice", "lat": "50.59544", "lon": "17.65408", "postalCode": "49-130"}, {"name": "Ujazd", "lat": "50.38839", "lon": "18.35082", "postalCode": "47-143"}, {"name": "Walce", "lat": "50.37466", "lon": "18.00283", "postalCode": "47-344"}, {"name": "Wo\u0142czyn", "lat": "51.01667", "lon": "18.05000", "postalCode": "46-250"}, {"name": "W\u00f3jcice", "lat": "50.46056", "lon": "17.21439", "postalCode": "48-385"}, {"name": "W\u0119gry", "lat": "50.74379", "lon": "18.01955", "postalCode": "46-045"}, {"name": "Zawada", "lat": "50.71891", "lon": "18.00262", "postalCode": "46-023"}, {"name": "Zawadzkie", "lat": "50.60833", "lon": "18.47950", "postalCode": "47-120"}, {"name": "Zdzieszowice", "lat": "50.42373", "lon": "18.12338", "postalCode": "47-330"}, {"name": "Z\u0119bowice", "lat": "50.76066", "lon": "18.34182", "postalCode": "46-048"}, {"name": "\u0141ambinowice", "lat": "50.53740", "lon": "17.55784", "postalCode": "48-316"}, {"name": "\u0141osi\u00f3w", "lat": "50.78946", "lon": "17.56950", "postalCode": "49-330"}, {"name": "\u0141ubniany", "lat": "50.77998", "lon": "18.00041", "postalCode": "46-024"}, {"name": "\u0141\u0105cznik", "lat": "50.45000", "lon": "17.73333", "postalCode": "48-220"}, {"name": "\u017bywocice", "lat": "50.46054", "lon": "17.97711", "postalCode": "47-300"}, {"name": "\u017b\u0119dowice", "lat": "50.58405", "lon": "18.51209", "postalCode": "47-120"}, {"name": "Albigowa", "lat": "50.01787", "lon": "22.22905", "postalCode": "37-122"}, {"name": "Baran\u00f3w Sandomierski", "lat": "50.49788", "lon": "21.54323", "postalCode": "39-450"}, {"name": "Bia\u0142obrzegi", "lat": "50.10007", "lon": "22.32475", "postalCode": "37-114"}, {"name": "Boguchwa\u0142a", "lat": "49.98346", "lon": "21.93941", "postalCode": "36-040"}, {"name": "Brze\u017anica", "lat": "50.10000", "lon": "21.48333", "postalCode": "39-207"}, {"name": "Brzostek", "lat": "49.88283", "lon": "21.40879", "postalCode": "39-230"}, {"name": "Brzoz\u00f3w", "lat": "49.69465", "lon": "22.01978", "postalCode": "36-200"}, {"name": "B\u0142a\u017cowa", "lat": "49.88224", "lon": "22.10084", "postalCode": "36-030"}, {"name": "Chorzel\u00f3w", "lat": "50.32645", "lon": "21.43843", "postalCode": "39-331"}, {"name": "Cieszan\u00f3w", "lat": "50.24500", "lon": "23.13240", "postalCode": "37-611"}, {"name": "Cmolas", "lat": "50.29400", "lon": "21.74504", "postalCode": "36-105"}, {"name": "Czarna", "lat": "50.11243", "lon": "22.18213", "postalCode": "37-125"}, {"name": "Czudec", "lat": "49.94569", "lon": "21.84210", "postalCode": "38-120"}, {"name": "Dubiecko", "lat": "49.82521", "lon": "22.39324", "postalCode": "37-750"}, {"name": "Dukla", "lat": "49.55455", "lon": "21.68280", "postalCode": "38-450"}, {"name": "Dulcza Wielka", "lat": "50.19036", "lon": "21.21283", "postalCode": "39-310"}, {"name": "Dyn\u00f3w", "lat": "49.81667", "lon": "22.23333", "postalCode": "36-065"}, {"name": "D\u0119bica", "lat": "50.04866", "lon": "21.42131", "postalCode": "39-200"}, {"name": "Frysztak", "lat": "49.83673", "lon": "21.61002", "postalCode": "38-130"}, {"name": "Gorzyce", "lat": "50.65915", "lon": "21.84570", "postalCode": "39-432"}, {"name": "Grabiny", "lat": "50.04930", "lon": "21.34615", "postalCode": "39-217"}, {"name": "G\u0142og\u00f3w Ma\u0142opolski", "lat": "50.15000", "lon": "21.96667", "postalCode": "36-060"}, {"name": "Humniska", "lat": "49.68138", "lon": "22.03955", "postalCode": "36-206"}, {"name": "Hy\u017cne", "lat": "49.91666", "lon": "22.18333", "postalCode": "36-024"}, {"name": "Iwonicz-Zdr\u00f3j", "lat": "49.56835", "lon": "21.79406", "postalCode": "38-440"}, {"name": "Jaros\u0142aw", "lat": "50.01580", "lon": "22.68024", "postalCode": "37-500"}, {"name": "Jasionka", "lat": "50.11462", "lon": "22.05484", "postalCode": "36-002"}, {"name": "Jas\u0142o", "lat": "49.74074", "lon": "21.46831", "postalCode": "38-200"}, {"name": "Jedlicze", "lat": "49.71657", "lon": "21.65213", "postalCode": "38-460"}, {"name": "Je\u017cowe", "lat": "50.37563", "lon": "22.14284", "postalCode": "37-430"}, {"name": "Jod\u0142owa", "lat": "49.87525", "lon": "21.30563", "postalCode": "39-225"}, {"name": "Kamie\u0144", "lat": "50.32880", "lon": "22.14026", "postalCode": "36-053"}, {"name": "Ka\u0144czuga", "lat": "49.98235", "lon": "22.41391", "postalCode": "37-220"}, {"name": "Kolbuszowa", "lat": "50.24322", "lon": "21.77589", "postalCode": "36-100"}, {"name": "Korczyna", "lat": "49.72111", "lon": "21.81372", "postalCode": "38-420"}, {"name": "Kosina", "lat": "50.07138", "lon": "22.32929", "postalCode": "37-112"}, {"name": "Kraczkowa", "lat": "50.03792", "lon": "22.17017", "postalCode": "37-124"}, {"name": "Krasne", "lat": "50.04506", "lon": "22.09157", "postalCode": "36-007"}, {"name": "Krosno", "lat": "49.69371", "lon": "21.76972", "postalCode": "38-400"}, {"name": "Lesko", "lat": "49.47084", "lon": "22.33140", "postalCode": "38-600"}, {"name": "Le\u017cajsk", "lat": "50.25494", "lon": "22.42323", "postalCode": "37-300"}, {"name": "Lubacz\u00f3w", "lat": "50.15566", "lon": "23.13508", "postalCode": "37-600"}, {"name": "Lubzina", "lat": "50.06420", "lon": "21.52617", "postalCode": "39-102"}, {"name": "Majdan Kr\u00f3lewski", "lat": "50.37645", "lon": "21.74875", "postalCode": "36-110"}, {"name": "Malawa", "lat": "50.02757", "lon": "22.11161", "postalCode": "36-007"}, {"name": "Markowa", "lat": "50.02271", "lon": "22.32348", "postalCode": "37-120"}, {"name": "Mielec", "lat": "50.28828", "lon": "21.42617", "postalCode": "39-313"}, {"name": "Narol", "lat": "50.34598", "lon": "23.32730", "postalCode": "37-610"}, {"name": "Nied\u017awiada", "lat": "50.04059", "lon": "21.59410", "postalCode": "39-100"}, {"name": "Nisko", "lat": "50.51755", "lon": "22.14474", "postalCode": "37-400"}, {"name": "Nowa D\u0119ba", "lat": "50.42853", "lon": "21.75233", "postalCode": "39-460"}, {"name": "Nowa Sarzyna", "lat": "50.32502", "lon": "22.33555", "postalCode": "37-310"}, {"name": "Nowy \u017bmigr\u00f3d", "lat": "49.60453", "lon": "21.52432", "postalCode": "38-230"}, {"name": "Oleszyce", "lat": "50.16764", "lon": "23.03259", "postalCode": "37-630"}, {"name": "Olszanica", "lat": "49.47790", "lon": "22.44600", "postalCode": "38-722"}, {"name": "Or\u0142y", "lat": "49.87116", "lon": "22.80905", "postalCode": "37-716"}, {"name": "Padew Narodowa", "lat": "50.43383", "lon": "21.48787", "postalCode": "39-340"}, {"name": "Pilzno", "lat": "49.97841", "lon": "21.29238", "postalCode": "39-220"}, {"name": "Pola\u0144czyk", "lat": "49.36699", "lon": "22.42189", "postalCode": "38-610"}, {"name": "Pruchnik", "lat": "49.90696", "lon": "22.51602", "postalCode": "37-560"}, {"name": "Przec\u0142aw", "lat": "50.19153", "lon": "21.48030", "postalCode": "39-320"}, {"name": "Przemy\u015bl", "lat": "49.77635", "lon": "22.73237", "postalCode": "37-700"}, {"name": "Przeworsk", "lat": "50.05518", "lon": "22.48941", "postalCode": "37-200"}, {"name": "Pustk\u00f3w", "lat": "50.13862", "lon": "21.49049", "postalCode": "39-205"}, {"name": "Pustk\u00f3w-Osiedle", "lat": "50.11726", "lon": "21.54335", "postalCode": "39-206"}, {"name": "Pysznica", "lat": "50.57382", "lon": "22.12955", "postalCode": "37-403"}, {"name": "Rac\u0142aw\u00f3wka", "lat": "50.00148", "lon": "21.92989", "postalCode": "36-047"}, {"name": "Radomy\u015bl Wielki", "lat": "50.19612", "lon": "21.27810", "postalCode": "39-310"}, {"name": "Radymno", "lat": "49.94648", "lon": "22.82475", "postalCode": "37-550"}, {"name": "Rakszawa", "lat": "50.14486", "lon": "22.25227", "postalCode": "37-111"}, {"name": "Ropczyce", "lat": "50.05283", "lon": "21.60841", "postalCode": "39-100"}, {"name": "Rudna Wielka", "lat": "50.08858", "lon": "21.95270", "postalCode": "36-054"}, {"name": "Rudnik nad Sanem", "lat": "50.44182", "lon": "22.24396", "postalCode": "37-420"}, {"name": "Ryman\u00f3w", "lat": "49.57777", "lon": "21.86755", "postalCode": "38-480"}, {"name": "Rzesz\u00f3w", "lat": "50.04152", "lon": "22.00953", "postalCode": "35-005"}, {"name": "Sanok", "lat": "49.55815", "lon": "22.20117", "postalCode": "38-950"}, {"name": "Sieniawa", "lat": "50.17586", "lon": "22.61011", "postalCode": "37-530"}, {"name": "Sko\u0142yszyn", "lat": "49.75064", "lon": "21.33755", "postalCode": "38-242"}, {"name": "Soko\u0142\u00f3w Ma\u0142opolski", "lat": "50.22965", "lon": "22.12160", "postalCode": "36-050"}, {"name": "Stalowa Wola", "lat": "50.61566", "lon": "22.02202", "postalCode": "37-450"}, {"name": "Strzy\u017c\u00f3w", "lat": "49.86908", "lon": "21.78940", "postalCode": "38-100"}, {"name": "Sz\u00f3wsko", "lat": "50.01617", "lon": "22.68265", "postalCode": "37-500"}, {"name": "S\u0119dzisz\u00f3w Ma\u0142opolski", "lat": "50.07126", "lon": "21.70000", "postalCode": "39-120"}, {"name": "Tarnobrzeg", "lat": "50.56884", "lon": "21.67350", "postalCode": "39-400"}, {"name": "Trzebownisko", "lat": "50.07866", "lon": "22.03585", "postalCode": "36-001"}, {"name": "Tuszyma", "lat": "50.19057", "lon": "21.51722", "postalCode": "39-321"}, {"name": "Tyczyn", "lat": "49.96388", "lon": "22.03667", "postalCode": "36-020"}, {"name": "Ustrzyki Dolne", "lat": "49.43055", "lon": "22.60287", "postalCode": "38-700"}, {"name": "Wadowice G\u00f3rne", "lat": "50.26208", "lon": "21.28954", "postalCode": "39-308"}, {"name": "Wielopole Skrzy\u0144skie", "lat": "49.94487", "lon": "21.61645", "postalCode": "39-110"}, {"name": "Wi\u015bniowa", "lat": "49.86841", "lon": "21.65781", "postalCode": "38-124"}, {"name": "Wola Dalsza", "lat": "50.10652", "lon": "22.26552", "postalCode": "37-100"}, {"name": "Zaczernie", "lat": "50.09327", "lon": "22.00462", "postalCode": "36-062"}, {"name": "Zag\u00f3rz", "lat": "49.51312", "lon": "22.26812", "postalCode": "38-540"}, {"name": "Zarzecze", "lat": "50.52277", "lon": "22.20725", "postalCode": "37-400"}, {"name": "\u0141a\u0144cut", "lat": "50.06822", "lon": "22.23178", "postalCode": "37-100"}, {"name": "\u0141ukawiec", "lat": "50.10348", "lon": "22.11950", "postalCode": "36-004"}, {"name": "\u015awilcza", "lat": "50.07045", "lon": "21.90015", "postalCode": "36-072"}, {"name": "\u017bo\u0142ynia", "lat": "50.16107", "lon": "22.30983", "postalCode": "37-110"}, {"name": "August\u00f3w", "lat": "53.84686", "lon": "22.97661", "postalCode": "16-300"}, {"name": "Baka\u0142arzewo", "lat": "54.09295", "lon": "22.65321", "postalCode": "16-423"}, {"name": "Barg\u0142\u00f3w Ko\u015bcielny", "lat": "53.77196", "lon": "22.82110", "postalCode": "16-320"}, {"name": "Bia\u0142a Woda", "lat": "54.15341", "lon": "22.89287", "postalCode": "16-400"}, {"name": "Bia\u0142ostoczek", "lat": "53.07250", "lon": "23.25458", "postalCode": "15-593"}, {"name": "Bia\u0142owie\u017ca", "lat": "52.70128", "lon": "23.86770", "postalCode": "17-230"}, {"name": "Bia\u0142ystok", "lat": "53.12988", "lon": "23.16996", "postalCode": "15-080"}, {"name": "Bielsk Podlaski", "lat": "52.76850", "lon": "23.18625", "postalCode": "17-100"}, {"name": "Bo\u0107ki", "lat": "52.65361", "lon": "23.04866", "postalCode": "17-111"}, {"name": "Bra\u0144sk", "lat": "52.74302", "lon": "22.84123", "postalCode": "17-120"}, {"name": "Choroszcz", "lat": "53.14442", "lon": "22.99087", "postalCode": "16-070"}, {"name": "Czarna Bia\u0142ostocka", "lat": "53.30522", "lon": "23.27235", "postalCode": "16-020"}, {"name": "Czeremcha", "lat": "52.51667", "lon": "23.35000", "postalCode": "17-240"}, {"name": "Czeremcha-Wie\u015b", "lat": "52.52898", "lon": "23.31459", "postalCode": "17-240"}, {"name": "Czy\u017cew", "lat": "52.79651", "lon": "22.31679", "postalCode": "18-220"}, {"name": "Dobrzyniewo Du\u017ce", "lat": "53.20513", "lon": "23.01616", "postalCode": "16-002"}, {"name": "Drohiczyn", "lat": "52.39866", "lon": "22.66010", "postalCode": "17-312"}, {"name": "D\u0105browa Bia\u0142ostocka", "lat": "53.65377", "lon": "23.35091", "postalCode": "16-200"}, {"name": "Fasty", "lat": "53.17015", "lon": "23.05789", "postalCode": "15-694"}, {"name": "Filip\u00f3w", "lat": "54.18022", "lon": "22.62222", "postalCode": "16-424"}, {"name": "Goni\u0105dz", "lat": "53.48749", "lon": "22.73371", "postalCode": "19-110"}, {"name": "Grabowo", "lat": "53.46522", "lon": "22.15253", "postalCode": "18-507"}, {"name": "Grab\u00f3wka", "lat": "53.12501", "lon": "23.25903", "postalCode": "15-509"}, {"name": "Grajewo", "lat": "53.62990", "lon": "22.45613", "postalCode": "19-203"}, {"name": "Grodzisk", "lat": "52.58217", "lon": "22.73953", "postalCode": "17-315"}, {"name": "Gr\u00f3dek", "lat": "53.09222", "lon": "23.68065", "postalCode": "16-040"}, {"name": "Hajn\u00f3wka", "lat": "52.74674", "lon": "23.57178", "postalCode": "17-200"}, {"name": "Hryniewicze", "lat": "53.07852", "lon": "23.13802", "postalCode": "15-378"}, {"name": "Ignatki", "lat": "53.08969", "lon": "23.12263", "postalCode": "16-001"}, {"name": "Ignatki-Osiedle", "lat": "53.06289", "lon": "23.09559", "postalCode": "16-005"}, {"name": "Jasion\u00f3wka", "lat": "53.39461", "lon": "23.03749", "postalCode": "19-122"}, {"name": "Jedwabne", "lat": "53.28474", "lon": "22.30471", "postalCode": "18-420"}, {"name": "Jeleniewo", "lat": "54.20559", "lon": "22.91393", "postalCode": "16-404"}, {"name": "Jeziorko", "lat": "53.21717", "lon": "22.16187", "postalCode": "18-421"}, {"name": "Juchnowiec Dolny", "lat": "53.00831", "lon": "23.13164", "postalCode": "16-061"}, {"name": "Juchnowiec Ko\u015bcielny", "lat": "53.02307", "lon": "23.13534", "postalCode": "16-061"}, {"name": "Kleosin", "lat": "53.09688", "lon": "23.11793", "postalCode": "16-001"}, {"name": "Klepacze", "lat": "53.10784", "lon": "23.07637", "postalCode": "15-635"}, {"name": "Klukowo", "lat": "52.77591", "lon": "22.50730", "postalCode": "18-214"}, {"name": "Knyszyn", "lat": "53.31182", "lon": "22.91715", "postalCode": "19-120"}, {"name": "Kolno", "lat": "53.40787", "lon": "21.93442", "postalCode": "18-500"}, {"name": "Korycin", "lat": "53.44537", "lon": "23.09113", "postalCode": "16-140"}, {"name": "Kozi\u0144ce", "lat": "53.24381", "lon": "22.98730", "postalCode": "16-002"}, {"name": "Krypno Wielkie", "lat": "53.27161", "lon": "22.86656", "postalCode": "19-111"}, {"name": "Ksi\u0119\u017cyno", "lat": "53.08196", "lon": "23.10386", "postalCode": "16-001"}, {"name": "Kulesze Ko\u015bcielne", "lat": "53.01698", "lon": "22.51629", "postalCode": "18-208"}, {"name": "Ku\u017anica", "lat": "53.51085", "lon": "23.64638", "postalCode": "16-123"}, {"name": "Lipsk", "lat": "53.73446", "lon": "23.39927", "postalCode": "16-315"}, {"name": "Miastkowo", "lat": "53.15140", "lon": "21.82314", "postalCode": "18-416"}, {"name": "Micha\u0142owo", "lat": "53.03491", "lon": "23.61054", "postalCode": "16-050"}, {"name": "Mo\u0142owiste", "lat": "53.93268", "lon": "23.21887", "postalCode": "16-326"}, {"name": "Mo\u0144ki", "lat": "53.40525", "lon": "22.79995", "postalCode": "19-100"}, {"name": "Narew", "lat": "52.91190", "lon": "23.52112", "postalCode": "17-210"}, {"name": "Nowe Piekuty", "lat": "52.85604", "lon": "22.70836", "postalCode": "18-212"}, {"name": "Nowogr\u00f3d", "lat": "53.22678", "lon": "21.88151", "postalCode": "18-414"}, {"name": "Ogrodniczki", "lat": "53.18566", "lon": "23.26734", "postalCode": "16-030"}, {"name": "Pi\u0105tnica Poduchowna", "lat": "53.19531", "lon": "22.09739", "postalCode": "18-421"}, {"name": "Poros\u0142y", "lat": "53.13909", "lon": "23.05717", "postalCode": "16-070"}, {"name": "Pu\u0144sk", "lat": "54.25000", "lon": "23.18147", "postalCode": "16-515"}, {"name": "Raczki", "lat": "53.98830", "lon": "22.78361", "postalCode": "16-420"}, {"name": "Rajgr\u00f3d", "lat": "53.72948", "lon": "22.69818", "postalCode": "19-206"}, {"name": "Rutki-Kossaki", "lat": "53.08808", "lon": "22.44200", "postalCode": "18-312"}, {"name": "Sejny", "lat": "54.10682", "lon": "23.35052", "postalCode": "16-500"}, {"name": "Sidra", "lat": "53.55215", "lon": "23.45055", "postalCode": "16-124"}, {"name": "Siemiatycze", "lat": "52.42703", "lon": "22.86909", "postalCode": "17-300"}, {"name": "Sobolewo", "lat": "53.11173", "lon": "23.28021", "postalCode": "15-509"}, {"name": "Sochonie", "lat": "53.21310", "lon": "23.17348", "postalCode": "16-010"}, {"name": "Soko\u0142y", "lat": "52.99195", "lon": "22.69993", "postalCode": "18-218"}, {"name": "Sok\u00f3\u0142ka", "lat": "53.40539", "lon": "23.50562", "postalCode": "16-100"}, {"name": "Stawiski", "lat": "53.37978", "lon": "22.15584", "postalCode": "18-520"}, {"name": "Suchowola", "lat": "53.57966", "lon": "23.10814", "postalCode": "16-150"}, {"name": "Supra\u015bl", "lat": "53.20574", "lon": "23.34228", "postalCode": "16-030"}, {"name": "Sura\u017c", "lat": "52.94920", "lon": "22.95636", "postalCode": "18-105"}, {"name": "Suwa\u0142ki", "lat": "54.10253", "lon": "22.92554", "postalCode": "16-400"}, {"name": "Szczuczyn", "lat": "53.56239", "lon": "22.28707", "postalCode": "19-230"}, {"name": "Szepietowo", "lat": "52.86868", "lon": "22.54419", "postalCode": "18-210"}, {"name": "Sztabin", "lat": "53.68001", "lon": "23.09895", "postalCode": "16-310"}, {"name": "Szumowo", "lat": "52.92020", "lon": "22.08645", "postalCode": "18-305"}, {"name": "Trofim\u00f3wka", "lat": "53.48637", "lon": "23.21811", "postalCode": "16-130"}, {"name": "Trzcianne", "lat": "53.34274", "lon": "22.68431", "postalCode": "19-104"}, {"name": "Turo\u015bl", "lat": "53.38708", "lon": "21.72959", "postalCode": "18-525"}, {"name": "Tykocin", "lat": "53.20560", "lon": "22.77417", "postalCode": "16-080"}, {"name": "Wasilk\u00f3w", "lat": "53.19724", "lon": "23.20935", "postalCode": "16-010"}, {"name": "Wizna", "lat": "53.19754", "lon": "22.34551", "postalCode": "18-430"}, {"name": "Wi\u017cajny", "lat": "54.35458", "lon": "22.85195", "postalCode": "16-407"}, {"name": "Wysokie Mazowieckie", "lat": "52.91680", "lon": "22.51139", "postalCode": "18-200"}, {"name": "W\u0105sosz", "lat": "53.52188", "lon": "22.31960", "postalCode": "19-222"}, {"name": "Zab\u0142ud\u00f3w", "lat": "53.01380", "lon": "23.33543", "postalCode": "16-060"}, {"name": "Zambr\u00f3w", "lat": "52.98537", "lon": "22.24458", "postalCode": "18-300"}, {"name": "Zawady", "lat": "53.15452", "lon": "22.66780", "postalCode": "16-075"}, {"name": "Za\u015bcianki", "lat": "53.12219", "lon": "23.23624", "postalCode": "15-521"}, {"name": "\u0141apy", "lat": "52.99095", "lon": "22.88709", "postalCode": "18-100"}, {"name": "\u0141om\u017ca", "lat": "53.13362", "lon": "22.08798", "postalCode": "18-403"}, {"name": "\u0141yski", "lat": "53.15128", "lon": "23.03698", "postalCode": "16-070"}, {"name": "\u015aniadowo", "lat": "53.04291", "lon": "21.99311", "postalCode": "18-411"}, {"name": "\u015ar\u00f3dlesie", "lat": "53.08396", "lon": "23.13059", "postalCode": "15-378"}, {"name": "Banino", "lat": "54.39481", "lon": "18.40664", "postalCode": "80-297"}, {"name": "Bojano", "lat": "54.47025", "lon": "18.38616", "postalCode": "84-207"}, {"name": "Bolszewo", "lat": "54.62177", "lon": "18.17834", "postalCode": "84-239"}, {"name": "Borkowo", "lat": "54.34024", "lon": "18.34190", "postalCode": "83-330"}, {"name": "Brusy", "lat": "53.88607", "lon": "17.72061", "postalCode": "89-632"}, {"name": "Byt\u00f3w", "lat": "54.16892", "lon": "17.49160", "postalCode": "77-100"}, {"name": "Choczewo", "lat": "54.74141", "lon": "17.89425", "postalCode": "84-210"}, {"name": "Chojnice", "lat": "53.68751", "lon": "17.57440", "postalCode": "89-600"}, {"name": "Chwaszczyno", "lat": "54.44252", "lon": "18.42133", "postalCode": "80-209"}, {"name": "Czarna Woda", "lat": "53.86174", "lon": "18.09476", "postalCode": "83-262"}, {"name": "Czarne", "lat": "53.68293", "lon": "16.94003", "postalCode": "77-330"}, {"name": "Czersk", "lat": "53.79842", "lon": "17.97754", "postalCode": "89-650"}, {"name": "Cz\u0142uch\u00f3w", "lat": "53.66626", "lon": "17.36262", "postalCode": "77-300"}, {"name": "Debrzno", "lat": "53.54842", "lon": "17.23855", "postalCode": "77-310"}, {"name": "Dzierzgo\u0144", "lat": "53.92068", "lon": "19.35025", "postalCode": "82-440"}, {"name": "D\u0119bnica Kaszubska", "lat": "54.37637", "lon": "17.16226", "postalCode": "76-248"}, {"name": "D\u0119bog\u00f3rze", "lat": "54.58984", "lon": "18.45750", "postalCode": "81-230"}, {"name": "Gda\u0144sk", "lat": "54.28267", "lon": "18.62990", "postalCode": "80-012"}, {"name": "Gdynia", "lat": "54.54361", "lon": "18.46015", "postalCode": "81-003"}, {"name": "Gniew", "lat": "53.83563", "lon": "18.82447", "postalCode": "83-140"}, {"name": "Gowino", "lat": "54.57516", "lon": "18.18846", "postalCode": "84-215"}, {"name": "Go\u015bcicino", "lat": "54.60597", "lon": "18.15939", "postalCode": "84-241"}, {"name": "Gwie\u017adzin", "lat": "53.73698", "lon": "17.19441", "postalCode": "77-304"}, {"name": "Hel", "lat": "54.60769", "lon": "18.80182", "postalCode": "84-150"}, {"name": "Juszkowo", "lat": "54.25608", "lon": "18.60292", "postalCode": "83-000"}, {"name": "Kaliska", "lat": "53.90449", "lon": "18.22065", "postalCode": "83-260"}, {"name": "Kamienica Szlachecka", "lat": "54.26947", "lon": "17.95019", "postalCode": "83-323"}, {"name": "Kartuzy", "lat": "54.33758", "lon": "18.18855", "postalCode": "83-300"}, {"name": "Kielno", "lat": "54.45216", "lon": "18.34016", "postalCode": "84-208"}, {"name": "Kie\u0142pino", "lat": "54.28975", "lon": "18.22934", "postalCode": "83-307"}, {"name": "Kobylnica", "lat": "54.44407", "lon": "17.00160", "postalCode": "76-251"}, {"name": "Kokoszkowy", "lat": "53.99653", "lon": "18.53075", "postalCode": "83-207"}, {"name": "Kolbudy", "lat": "54.27321", "lon": "18.46454", "postalCode": "83-050"}, {"name": "Kosakowo", "lat": "54.59173", "lon": "18.50248", "postalCode": "81-198"}, {"name": "Kowale", "lat": "54.30883", "lon": "18.56349", "postalCode": "80-180"}, {"name": "Ko\u015bcierzyna", "lat": "54.12640", "lon": "17.98301", "postalCode": "83-400"}, {"name": "Kwidzyn", "lat": "53.72788", "lon": "18.93340", "postalCode": "82-500"}, {"name": "K\u0119b\u0142owo", "lat": "54.59603", "lon": "18.09969", "postalCode": "84-242"}, {"name": "K\u0119pice", "lat": "54.24276", "lon": "16.89087", "postalCode": "77-230"}, {"name": "Linia", "lat": "54.45215", "lon": "17.93673", "postalCode": "84-223"}, {"name": "Lipusz", "lat": "54.09810", "lon": "17.78534", "postalCode": "83-424"}, {"name": "Lubichowo", "lat": "53.85025", "lon": "18.40397", "postalCode": "83-240"}, {"name": "Lubowidz", "lat": "54.53905", "lon": "17.74589", "postalCode": "84-300"}, {"name": "Luzino", "lat": "54.56559", "lon": "18.11472", "postalCode": "84-242"}, {"name": "L\u0119bork", "lat": "54.43586", "lon": "17.73792", "postalCode": "84-312"}, {"name": "Malbork", "lat": "54.03834", "lon": "19.02913", "postalCode": "82-200"}, {"name": "Miastko", "lat": "54.00300", "lon": "16.98010", "postalCode": "77-200"}, {"name": "Miechucino", "lat": "54.34052", "lon": "18.02594", "postalCode": "83-334"}, {"name": "Mosty", "lat": "54.54824", "lon": "17.78542", "postalCode": "84-353"}, {"name": "Nowa Wie\u015b L\u0119borska", "lat": "54.55831", "lon": "17.72296", "postalCode": "84-351"}, {"name": "Nowy Dw\u00f3r Gda\u0144ski", "lat": "54.21218", "lon": "19.12366", "postalCode": "82-100"}, {"name": "Orle", "lat": "54.64011", "lon": "18.17198", "postalCode": "84-252"}, {"name": "Pelplin", "lat": "53.92722", "lon": "18.69722", "postalCode": "83-130"}, {"name": "Pinczyn", "lat": "53.96071", "lon": "18.34982", "postalCode": "83-251"}, {"name": "Pog\u00f3rze", "lat": "54.56876", "lon": "18.48150", "postalCode": "81-198"}, {"name": "Pot\u0119gowo", "lat": "54.48333", "lon": "17.48333", "postalCode": "76-230"}, {"name": "Prabuty", "lat": "53.75649", "lon": "19.20227", "postalCode": "82-550"}, {"name": "Pruszcz Gda\u0144ski", "lat": "54.26023", "lon": "18.64818", "postalCode": "83-000"}, {"name": "Przodkowo", "lat": "54.37787", "lon": "18.28921", "postalCode": "83-304"}, {"name": "Pszcz\u00f3\u0142ki", "lat": "54.17309", "lon": "18.69560", "postalCode": "83-032"}, {"name": "Puck", "lat": "54.71879", "lon": "18.41176", "postalCode": "84-100"}, {"name": "P\u0119powo", "lat": "54.36685", "lon": "18.39838", "postalCode": "83-330"}, {"name": "Reda", "lat": "54.60189", "lon": "18.34948", "postalCode": "84-240"}, {"name": "Rotmanka", "lat": "54.27546", "lon": "18.61113", "postalCode": "83-010"}, {"name": "Rumia", "lat": "54.59015", "lon": "18.42748", "postalCode": "84-230"}, {"name": "Ryjewo", "lat": "53.84523", "lon": "18.96069", "postalCode": "82-420"}, {"name": "Sadlinki", "lat": "53.66632", "lon": "18.88070", "postalCode": "82-522"}, {"name": "Sierakowice", "lat": "54.34685", "lon": "17.89713", "postalCode": "83-340"}, {"name": "Skarszewy", "lat": "54.07072", "lon": "18.44173", "postalCode": "83-250"}, {"name": "Skowarcz", "lat": "54.18440", "lon": "18.67987", "postalCode": "83-032"}, {"name": "Sk\u00f3rcz", "lat": "53.79293", "lon": "18.52777", "postalCode": "83-220"}, {"name": "Somonino", "lat": "54.27611", "lon": "18.20147", "postalCode": "83-314"}, {"name": "Sopot", "lat": "54.44150", "lon": "18.57300", "postalCode": "81-723"}, {"name": "Stara Kiszewa", "lat": "53.99006", "lon": "18.17474", "postalCode": "83-430"}, {"name": "Starogard Gda\u0144ski", "lat": "53.96424", "lon": "18.53013", "postalCode": "83-200"}, {"name": "Straszyn", "lat": "54.26993", "lon": "18.58060", "postalCode": "83-010"}, {"name": "Strzebielino Osiedle", "lat": "54.56516", "lon": "18.04319", "postalCode": "84-220"}, {"name": "St\u0119\u017cyca", "lat": "54.20674", "lon": "17.95833", "postalCode": "83-322"}, {"name": "Suchy Dw\u00f3r", "lat": "54.57272", "lon": "18.47199", "postalCode": "81-198"}, {"name": "Sycewice", "lat": "54.42172", "lon": "16.86746", "postalCode": "76-251"}, {"name": "Szemud", "lat": "54.48610", "lon": "18.22164", "postalCode": "84-217"}, {"name": "Sztum", "lat": "53.92157", "lon": "19.03409", "postalCode": "82-400"}, {"name": "S\u0142upsk", "lat": "54.46670", "lon": "17.03442", "postalCode": "76-200"}, {"name": "Tczew", "lat": "54.08734", "lon": "18.80074", "postalCode": "83-110"}, {"name": "Tr\u0105bki Wielkie", "lat": "54.17075", "lon": "18.53815", "postalCode": "83-034"}, {"name": "Ustka", "lat": "54.58644", "lon": "16.85838", "postalCode": "76-270"}, {"name": "Wejherowo", "lat": "54.60190", "lon": "18.23680", "postalCode": "84-200"}, {"name": "Wejherowo-Nanice", "lat": "54.60190", "lon": "18.23680", "postalCode": "84-200"}, {"name": "W\u0142adys\u0142awowo", "lat": "54.79351", "lon": "18.40728", "postalCode": "84-120"}, {"name": "Zblewo", "lat": "53.93399", "lon": "18.33132", "postalCode": "83-210"}, {"name": "\u0141eba", "lat": "54.75877", "lon": "17.55766", "postalCode": "84-360"}, {"name": "\u0141ubiana", "lat": "54.11511", "lon": "17.87207", "postalCode": "83-400"}, {"name": "\u0141\u0105g", "lat": "53.82950", "lon": "18.06666", "postalCode": "89-652"}, {"name": "\u0141\u0119gowo", "lat": "54.22061", "lon": "18.64847", "postalCode": "83-031"}, {"name": "\u017belistrzewo", "lat": "54.67646", "lon": "18.42157", "postalCode": "84-122"}, {"name": "\u017bukowo", "lat": "54.34281", "lon": "18.36430", "postalCode": "83-330"}, {"name": "Bielsko-Bia\u0142a", "lat": "49.82198", "lon": "19.05043", "postalCode": "43-300"}, {"name": "Bieru\u0144", "lat": "50.08545", "lon": "19.10297", "postalCode": "43-150"}, {"name": "Blachownia", "lat": "50.77792", "lon": "18.97330", "postalCode": "42-290"}, {"name": "Borucin", "lat": "50.00624", "lon": "18.15725", "postalCode": "47-470"}, {"name": "Bytom", "lat": "50.34938", "lon": "18.91962", "postalCode": "41-902"}, {"name": "B\u0119dzin", "lat": "50.37484", "lon": "19.10498", "postalCode": "42-512"}, {"name": "Che\u0142m \u015al\u0105ski", "lat": "50.10830", "lon": "19.20067", "postalCode": "41-403"}, {"name": "Chorz\u00f3w", "lat": "50.29512", "lon": "18.95103", "postalCode": "41-500"}, {"name": "Chybie", "lat": "49.89389", "lon": "18.81521", "postalCode": "43-520"}, {"name": "Cieszyn", "lat": "49.71830", "lon": "18.66228", "postalCode": "43-400"}, {"name": "Czechowice-Dziedzice", "lat": "49.91276", "lon": "19.00687", "postalCode": "43-500"}, {"name": "Czelad\u017a", "lat": "50.31377", "lon": "19.07778", "postalCode": "41-250"}, {"name": "Czerwionka-Leszczyny", "lat": "50.14930", "lon": "18.66899", "postalCode": "44-230"}, {"name": "Czy\u017cowice", "lat": "49.98318", "lon": "18.41159", "postalCode": "44-352"}, {"name": "Cz\u0119stochowa", "lat": "50.72717", "lon": "19.16980", "postalCode": "42-262"}, {"name": "D\u0105browa G\u00f3rnicza", "lat": "50.33080", "lon": "19.22989", "postalCode": "41-300"}, {"name": "Giera\u0142towice", "lat": "50.22355", "lon": "18.72492", "postalCode": "44-186"}, {"name": "Gliwice", "lat": "50.33793", "lon": "18.58702", "postalCode": "44-164"}, {"name": "Gosty\u0144", "lat": "50.10378", "lon": "18.88438", "postalCode": "43-176"}, {"name": "Imielin", "lat": "50.14427", "lon": "19.18711", "postalCode": "41-407"}, {"name": "Jasienica", "lat": "49.81480", "lon": "18.92268", "postalCode": "43-385"}, {"name": "Jastrz\u0119bie-Zdr\u00f3j", "lat": "49.95369", "lon": "18.59392", "postalCode": "44-335"}, {"name": "Jaworze", "lat": "49.79206", "lon": "18.94978", "postalCode": "43-384"}, {"name": "Jaworzno", "lat": "50.21052", "lon": "19.26565", "postalCode": "43-600"}, {"name": "Jejkowice", "lat": "50.10754", "lon": "18.46947", "postalCode": "44-290"}, {"name": "Kalety", "lat": "50.56598", "lon": "18.88779", "postalCode": "42-660"}, {"name": "Katowice", "lat": "50.26288", "lon": "19.02276", "postalCode": "40-004"}, {"name": "Knur\u00f3w", "lat": "50.22054", "lon": "18.67079", "postalCode": "44-190"}, {"name": "Kobi\u00f3r", "lat": "50.06152", "lon": "18.93416", "postalCode": "43-210"}, {"name": "Koniecpol", "lat": "50.77384", "lon": "19.68832", "postalCode": "42-230"}, {"name": "Kornowac", "lat": "50.07163", "lon": "18.32154", "postalCode": "44-285"}, {"name": "Kosz\u0119cin", "lat": "50.63595", "lon": "18.84500", "postalCode": "42-286"}, {"name": "Kozieg\u0142owy", "lat": "50.59877", "lon": "19.16294", "postalCode": "42-350"}, {"name": "Kozy", "lat": "49.85015", "lon": "19.14608", "postalCode": "43-340"}, {"name": "Krzepice", "lat": "50.97113", "lon": "18.72988", "postalCode": "42-160"}, {"name": "Ku\u017ania Raciborska", "lat": "50.19894", "lon": "18.31409", "postalCode": "47-420"}, {"name": "K\u0142obuck", "lat": "50.90189", "lon": "18.94035", "postalCode": "42-100"}, {"name": "Lubliniec", "lat": "50.67256", "lon": "18.71808", "postalCode": "42-700"}, {"name": "L\u0119dziny", "lat": "50.12781", "lon": "19.10759", "postalCode": "43-140"}, {"name": "Marklowice", "lat": "50.01632", "lon": "18.52210", "postalCode": "44-321"}, {"name": "Miasteczko \u015al\u0105skie", "lat": "50.50413", "lon": "18.92851", "postalCode": "42-610"}, {"name": "Miko\u0142\u00f3w", "lat": "50.17769", "lon": "18.89011", "postalCode": "43-190"}, {"name": "Mil\u00f3wka", "lat": "49.55918", "lon": "19.08901", "postalCode": "34-360"}, {"name": "Myszk\u00f3w", "lat": "50.57816", "lon": "19.33574", "postalCode": "42-300"}, {"name": "Mys\u0142owice", "lat": "50.24998", "lon": "19.13387", "postalCode": "41-400"}, {"name": "Ogrodzieniec", "lat": "50.45000", "lon": "19.51667", "postalCode": "42-440"}, {"name": "Olsztyn", "lat": "50.75127", "lon": "19.26980", "postalCode": "42-256"}, {"name": "Ornontowice", "lat": "50.18930", "lon": "18.75841", "postalCode": "43-178"}, {"name": "Orzesze", "lat": "50.14400", "lon": "18.77523", "postalCode": "43-180"}, {"name": "Pani\u00f3wki", "lat": "50.23058", "lon": "18.78201", "postalCode": "44-177"}, {"name": "Parzymiechy", "lat": "51.03989", "lon": "18.74266", "postalCode": "42-164"}, {"name": "Paw\u0142owice", "lat": "49.95325", "lon": "18.70753", "postalCode": "43-250"}, {"name": "Piekary \u015al\u0105skie", "lat": "50.36864", "lon": "18.97699", "postalCode": "41-949"}, {"name": "Pisarzowice", "lat": "49.88334", "lon": "19.14755", "postalCode": "43-332"}, {"name": "Poraj", "lat": "50.67779", "lon": "19.21658", "postalCode": "42-360"}, {"name": "Por\u0119ba", "lat": "50.48772", "lon": "19.34931", "postalCode": "42-480"}, {"name": "Przyszowice", "lat": "50.23112", "lon": "18.74837", "postalCode": "44-178"}, {"name": "Pszczyna", "lat": "49.97910", "lon": "18.94733", "postalCode": "43-200"}, {"name": "Psz\u00f3w", "lat": "50.04210", "lon": "18.40403", "postalCode": "44-370"}, {"name": "Pyskowice", "lat": "50.40702", "lon": "18.56506", "postalCode": "44-120"}, {"name": "Racib\u00f3rz", "lat": "50.05619", "lon": "18.15351", "postalCode": "47-475"}, {"name": "Radlin", "lat": "50.03968", "lon": "18.46716", "postalCode": "44-310"}, {"name": "Radzionk\u00f3w", "lat": "50.40418", "lon": "18.90716", "postalCode": "41-922"}, {"name": "Rogo\u017anik", "lat": "50.39002", "lon": "19.04211", "postalCode": "42-510"}, {"name": "Ruda \u015al\u0105ska", "lat": "50.25151", "lon": "18.90779", "postalCode": "41-707"}, {"name": "Rybnik", "lat": "50.10210", "lon": "18.54620", "postalCode": "44-200"}, {"name": "Rydu\u0142towy", "lat": "50.05844", "lon": "18.42191", "postalCode": "44-280"}, {"name": "Siemianowice \u015al\u0105skie", "lat": "50.33012", "lon": "19.03136", "postalCode": "41-103"}, {"name": "Siewierz", "lat": "50.47654", "lon": "19.22758", "postalCode": "42-470"}, {"name": "Skocz\u00f3w", "lat": "49.80875", "lon": "18.79029", "postalCode": "43-430"}, {"name": "Sosnowiec", "lat": "50.28158", "lon": "19.11219", "postalCode": "41-209"}, {"name": "Strumie\u0144", "lat": "49.91510", "lon": "18.75384", "postalCode": "43-246"}, {"name": "Suszec", "lat": "50.03435", "lon": "18.79037", "postalCode": "43-267"}, {"name": "Szczekociny", "lat": "50.62531", "lon": "19.81872", "postalCode": "42-445"}, {"name": "Szczyrk", "lat": "49.71513", "lon": "19.02172", "postalCode": "43-370"}, {"name": "S\u0142awk\u00f3w", "lat": "50.30096", "lon": "19.38914", "postalCode": "41-260"}, {"name": "Tarnowskie G\u00f3ry", "lat": "50.44613", "lon": "18.85827", "postalCode": "42-600"}, {"name": "Toszek", "lat": "50.45407", "lon": "18.52240", "postalCode": "44-180"}, {"name": "Tychy", "lat": "50.12707", "lon": "18.98240", "postalCode": "43-100"}, {"name": "Ustro\u0144", "lat": "49.72425", "lon": "18.80896", "postalCode": "43-450"}, {"name": "Wilkowice", "lat": "49.76214", "lon": "19.09181", "postalCode": "43-365"}, {"name": "Wis\u0142a", "lat": "49.65201", "lon": "18.86263", "postalCode": "43-460"}, {"name": "Wodzis\u0142aw \u015al\u0105ski", "lat": "50.00063", "lon": "18.46057", "postalCode": "44-300"}, {"name": "Wojkowice", "lat": "50.36039", "lon": "19.05650", "postalCode": "42-580"}, {"name": "Wola", "lat": "50.01644", "lon": "19.12060", "postalCode": "43-225"}, {"name": "Wo\u017aniki", "lat": "50.58735", "lon": "19.06133", "postalCode": "42-289"}, {"name": "Wyry", "lat": "50.13402", "lon": "18.90214", "postalCode": "43-175"}, {"name": "W\u0119gierska G\u00f3rka", "lat": "49.60118", "lon": "19.11064", "postalCode": "34-350"}, {"name": "Zabrze", "lat": "50.30255", "lon": "18.77438", "postalCode": "41-800"}, {"name": "Zawiercie", "lat": "50.52039", "lon": "19.43258", "postalCode": "42-400"}, {"name": "Zebrzydowice", "lat": "49.87705", "lon": "18.60919", "postalCode": "43-410"}, {"name": "\u0141aziska G\u00f3rne", "lat": "50.14913", "lon": "18.84118", "postalCode": "43-170"}, {"name": "\u0141azy", "lat": "50.42765", "lon": "19.39561", "postalCode": "42-450"}, {"name": "\u0141odygowice", "lat": "49.72801", "lon": "19.14595", "postalCode": "34-325"}, {"name": "\u015awierklaniec", "lat": "50.44138", "lon": "18.93854", "postalCode": "42-622"}, {"name": "\u015awierklany", "lat": "50.01852", "lon": "18.57698", "postalCode": "44-266"}, {"name": "\u015awi\u0119toch\u0142owice", "lat": "50.30735", "lon": "18.90414", "postalCode": "41-605"}, {"name": "\u017barki", "lat": "50.62426", "lon": "19.36618", "postalCode": "42-310"}, {"name": "\u017bory", "lat": "50.03937", "lon": "18.68291", "postalCode": "44-241"}, {"name": "\u017bywiec", "lat": "49.68829", "lon": "19.20381", "postalCode": "34-300"}, {"name": "Ba\u0107kowice", "lat": "50.79295", "lon": "21.23338", "postalCode": "27-552"}, {"name": "Ba\u0142t\u00f3w", "lat": "51.01761", "lon": "21.54133", "postalCode": "27-423"}, {"name": "Bieliny", "lat": "50.84943", "lon": "20.93937", "postalCode": "26-004"}, {"name": "Bilcza", "lat": "50.78600", "lon": "20.61652", "postalCode": "26-026"}, {"name": "Bli\u017cyn", "lat": "51.10998", "lon": "20.76047", "postalCode": "26-120"}, {"name": "Bodzech\u00f3w", "lat": "50.90852", "lon": "21.44016", "postalCode": "27-420"}, {"name": "Bodzentyn", "lat": "50.94068", "lon": "20.95918", "postalCode": "26-010"}, {"name": "Bogoria", "lat": "50.65113", "lon": "21.26261", "postalCode": "28-210"}, {"name": "Brody", "lat": "51.02408", "lon": "21.23115", "postalCode": "27-230"}, {"name": "Brzeziny", "lat": "50.76106", "lon": "20.59571", "postalCode": "26-026"}, {"name": "Busko-Zdr\u00f3j", "lat": "50.47086", "lon": "20.72001", "postalCode": "28-100"}, {"name": "Cedzyna", "lat": "50.86747", "lon": "20.72242", "postalCode": "23-351"}, {"name": "Chmielnik", "lat": "50.61666", "lon": "20.75000", "postalCode": "28-110"}, {"name": "Ch\u0119ciny", "lat": "50.79997", "lon": "20.46251", "postalCode": "26-060"}, {"name": "Daleszyce", "lat": "50.80164", "lon": "20.81017", "postalCode": "26-021"}, {"name": "Dwikozy", "lat": "50.73306", "lon": "21.78909", "postalCode": "27-620"}, {"name": "Dzia\u0142oszyce", "lat": "50.36514", "lon": "20.35076", "postalCode": "28-440"}, {"name": "Fa\u0142k\u00f3w", "lat": "51.13333", "lon": "20.10000", "postalCode": "26-260"}, {"name": "Gnojno", "lat": "50.60082", "lon": "20.85207", "postalCode": "28-114"}, {"name": "Gowarcz\u00f3w", "lat": "51.27746", "lon": "20.44015", "postalCode": "26-225"}, {"name": "G\u00f3rno", "lat": "50.84820", "lon": "20.82411", "postalCode": "26-008"}, {"name": "Iwaniska", "lat": "50.73125", "lon": "21.27841", "postalCode": "27-570"}, {"name": "Janik", "lat": "50.97377", "lon": "21.31439", "postalCode": "27-415"}, {"name": "J\u0119drzej\u00f3w", "lat": "50.64003", "lon": "20.30568", "postalCode": "28-300"}, {"name": "Kazimierza Wielka", "lat": "50.26210", "lon": "20.49378", "postalCode": "28-500"}, {"name": "Kielce", "lat": "50.87056", "lon": "20.62798", "postalCode": "25-007"}, {"name": "Kije", "lat": "50.61183", "lon": "20.57573", "postalCode": "28-404"}, {"name": "Klimont\u00f3w", "lat": "50.65568", "lon": "21.45287", "postalCode": "27-640"}, {"name": "Koprzywnica", "lat": "50.59235", "lon": "21.58588", "postalCode": "27-660"}, {"name": "Kostom\u0142oty Pierwsze", "lat": "50.91821", "lon": "20.59290", "postalCode": "26-085"}, {"name": "Ko\u0144skie", "lat": "51.19163", "lon": "20.40866", "postalCode": "26-200"}, {"name": "Krajno-Parcele", "lat": "50.88143", "lon": "20.84368", "postalCode": "26-008"}, {"name": "Krasocin", "lat": "50.88896", "lon": "20.12089", "postalCode": "29-105"}, {"name": "Kucz\u00f3w", "lat": "51.00353", "lon": "21.11971", "postalCode": "27-230"}, {"name": "Kun\u00f3w", "lat": "50.95938", "lon": "21.28159", "postalCode": "27-415"}, {"name": "Lech\u00f3w", "lat": "50.80426", "lon": "20.99266", "postalCode": "26-004"}, {"name": "Leszczyny", "lat": "50.87417", "lon": "20.76064", "postalCode": "26-008"}, {"name": "Mas\u0142\u00f3w Pierwszy", "lat": "50.90738", "lon": "20.73222", "postalCode": "26-001"}, {"name": "Ma\u0142ogoszcz", "lat": "50.81179", "lon": "20.26660", "postalCode": "28-366"}, {"name": "Miedziana G\u00f3ra", "lat": "50.93051", "lon": "20.56725", "postalCode": "26-085"}, {"name": "Mirzec", "lat": "51.13390", "lon": "21.05920", "postalCode": "27-220"}, {"name": "Mni\u00f3w", "lat": "51.01062", "lon": "20.48796", "postalCode": "26-080"}, {"name": "Morawica", "lat": "50.74088", "lon": "20.62750", "postalCode": "26-026"}, {"name": "Nowa S\u0142upia", "lat": "50.86388", "lon": "21.09308", "postalCode": "26-006"}, {"name": "Nowiny", "lat": "50.82178", "lon": "20.54429", "postalCode": "26-052"}, {"name": "Nowy Korczyn", "lat": "50.29923", "lon": "20.80838", "postalCode": "33-262"}, {"name": "Ole\u015bnica", "lat": "50.45164", "lon": "21.06574", "postalCode": "28-220"}, {"name": "Opat\u00f3w", "lat": "50.79645", "lon": "21.42023", "postalCode": "27-500"}, {"name": "Osiek", "lat": "50.51812", "lon": "21.44450", "postalCode": "28-221"}, {"name": "Ostrowiec \u015awi\u0119tokrzyski", "lat": "50.93816", "lon": "21.38997", "postalCode": "27-400"}, {"name": "O\u017car\u00f3w", "lat": "50.88627", "lon": "21.66710", "postalCode": "27-530"}, {"name": "Pacan\u00f3w", "lat": "50.40085", "lon": "21.04164", "postalCode": "28-133"}, {"name": "Parsz\u00f3w", "lat": "51.07915", "lon": "20.92709", "postalCode": "27-215"}, {"name": "Paw\u0142\u00f3w", "lat": "50.96206", "lon": "21.12289", "postalCode": "27-225"}, {"name": "Piekosz\u00f3w", "lat": "50.87993", "lon": "20.46267", "postalCode": "26-065"}, {"name": "Pierzchnica", "lat": "50.69655", "lon": "20.75601", "postalCode": "26-015"}, {"name": "Pi\u0144cz\u00f3w", "lat": "50.51935", "lon": "20.52523", "postalCode": "28-400"}, {"name": "Po\u0142aniec", "lat": "50.43179", "lon": "21.28088", "postalCode": "28-230"}, {"name": "Radlin", "lat": "50.86084", "lon": "20.75416", "postalCode": "26-008"}, {"name": "Radoszyce", "lat": "51.07388", "lon": "20.25622", "postalCode": "26-230"}, {"name": "Rak\u00f3w", "lat": "50.67467", "lon": "21.04489", "postalCode": "26-035"}, {"name": "Rytwiany", "lat": "50.52826", "lon": "21.20850", "postalCode": "28-236"}, {"name": "Sadowie", "lat": "50.85180", "lon": "21.37070", "postalCode": "27-580"}, {"name": "Sandomierz", "lat": "50.67605", "lon": "21.75749", "postalCode": "27-609"}, {"name": "Secemin", "lat": "50.76700", "lon": "19.84049", "postalCode": "29-145"}, {"name": "Skalbmierz", "lat": "50.31877", "lon": "20.40191", "postalCode": "28-530"}, {"name": "Skar\u017cysko Ko\u015bcielne", "lat": "51.13831", "lon": "20.91462", "postalCode": "26-115"}, {"name": "Skar\u017cysko-Kamienna", "lat": "51.11584", "lon": "20.86287", "postalCode": "26-110"}, {"name": "Sobk\u00f3w", "lat": "50.69705", "lon": "20.45546", "postalCode": "28-305"}, {"name": "Solec-Zdr\u00f3j", "lat": "50.36700", "lon": "20.88996", "postalCode": "28-131"}, {"name": "Starachowice", "lat": "51.04796", "lon": "21.06108", "postalCode": "27-200"}, {"name": "Stasz\u00f3w", "lat": "50.56428", "lon": "21.17081", "postalCode": "28-200"}, {"name": "Stopnica", "lat": "50.43957", "lon": "20.93972", "postalCode": "28-130"}, {"name": "Strawczyn", "lat": "50.94060", "lon": "20.42186", "postalCode": "26-067"}, {"name": "St\u0105pork\u00f3w", "lat": "51.13665", "lon": "20.55920", "postalCode": "26-220"}, {"name": "Suchedni\u00f3w", "lat": "51.04375", "lon": "20.83468", "postalCode": "26-130"}, {"name": "Suk\u00f3w", "lat": "50.80995", "lon": "20.68654", "postalCode": "26-024"}, {"name": "Szewna", "lat": "50.91490", "lon": "21.36605", "postalCode": "27-400"}, {"name": "Szyd\u0142\u00f3w", "lat": "50.59158", "lon": "21.00667", "postalCode": "28-225"}, {"name": "S\u0119dzisz\u00f3w", "lat": "50.57373", "lon": "20.07203", "postalCode": "28-340"}, {"name": "Tumlin-Podgr\u00f3d", "lat": "50.96178", "lon": "20.57014", "postalCode": "26-085"}, {"name": "Wa\u015bni\u00f3w", "lat": "50.89851", "lon": "21.22389", "postalCode": "27-425"}, {"name": "Wi\u015blica", "lat": "50.34821", "lon": "20.67511", "postalCode": "28-160"}, {"name": "Wodzis\u0142aw", "lat": "50.51937", "lon": "20.19233", "postalCode": "28-330"}, {"name": "Wola Jachowa", "lat": "50.84495", "lon": "20.85999", "postalCode": "26-008"}, {"name": "Wola Morawicka", "lat": "50.73501", "lon": "20.63407", "postalCode": "26-026"}, {"name": "W\u0105chock", "lat": "51.07962", "lon": "21.01934", "postalCode": "27-215"}, {"name": "W\u0142oszczowa", "lat": "50.85259", "lon": "19.96787", "postalCode": "29-100"}, {"name": "Zagna\u0144sk", "lat": "50.97291", "lon": "20.65639", "postalCode": "26-050"}, {"name": "Zg\u00f3rsko", "lat": "50.82933", "lon": "20.52332", "postalCode": "26-052"}, {"name": "Zrecze Ma\u0142e", "lat": "50.60733", "lon": "20.78160", "postalCode": "28-110"}, {"name": "\u0106miel\u00f3w", "lat": "50.88893", "lon": "21.51562", "postalCode": "27-440"}, {"name": "\u0141ag\u00f3w", "lat": "50.77689", "lon": "21.08646", "postalCode": "26-025"}, {"name": "\u0141oni\u00f3w", "lat": "50.56368", "lon": "21.52928", "postalCode": "27-670"}, {"name": "\u0141opuszno", "lat": "50.95000", "lon": "20.25000", "postalCode": "26-070"}, {"name": "\u0141\u0105czna", "lat": "50.99302", "lon": "20.79114", "postalCode": "26-140"}, {"name": "\u0141\u0105\u017cek", "lat": "50.52706", "lon": "21.58658", "postalCode": "39-450"}, {"name": "\u015awi\u0119ta Katarzyna", "lat": "50.90603", "lon": "20.88297", "postalCode": "26-010"}, {"name": "Banie Mazurskie", "lat": "54.24490", "lon": "22.04535", "postalCode": "19-520"}, {"name": "Barczewo", "lat": "53.82907", "lon": "20.69321", "postalCode": "11-010"}, {"name": "Bartoszyce", "lat": "54.25325", "lon": "20.81024", "postalCode": "11-200"}, {"name": "Bart\u0105g", "lat": "53.71552", "lon": "20.47113", "postalCode": "10-687"}, {"name": "Bia\u0142a Piska", "lat": "53.61131", "lon": "22.06543", "postalCode": "12-230"}, {"name": "Biskupiec", "lat": "53.50000", "lon": "19.35000", "postalCode": "13-340"}, {"name": "Bisztynek", "lat": "54.08609", "lon": "20.90775", "postalCode": "11-230"}, {"name": "Braniewo", "lat": "54.38215", "lon": "19.84511", "postalCode": "14-500"}, {"name": "Bratian", "lat": "53.45597", "lon": "19.60809", "postalCode": "13-300"}, {"name": "Brzozie Lubawskie", "lat": "53.34168", "lon": "19.56587", "postalCode": "13-306"}, {"name": "Dobre Miasto", "lat": "53.98678", "lon": "20.39516", "postalCode": "11-040"}, {"name": "Dorotowo", "lat": "53.69163", "lon": "20.41299", "postalCode": "11-034"}, {"name": "Dywity", "lat": "53.83387", "lon": "20.47581", "postalCode": "11-001"}, {"name": "Dzia\u0142dowo", "lat": "53.23408", "lon": "20.18050", "postalCode": "13-201"}, {"name": "D\u017awierzuty", "lat": "53.70437", "lon": "20.96338", "postalCode": "12-120"}, {"name": "Elbl\u0105g", "lat": "54.17079", "lon": "19.40479", "postalCode": "82-300"}, {"name": "E\u0142k", "lat": "53.80957", "lon": "22.33548", "postalCode": "19-300"}, {"name": "Frombork", "lat": "54.35730", "lon": "19.68785", "postalCode": "14-530"}, {"name": "Giedajty", "lat": "53.79739", "lon": "20.29715", "postalCode": "11-042"}, {"name": "Gi\u017cycko", "lat": "54.03567", "lon": "21.77016", "postalCode": "11-500"}, {"name": "Go\u0142dap", "lat": "54.25460", "lon": "22.27362", "postalCode": "19-500"}, {"name": "Grodziczno", "lat": "53.41248", "lon": "19.76246", "postalCode": "13-324"}, {"name": "Grzybowo", "lat": "53.95626", "lon": "21.20775", "postalCode": "11-440"}, {"name": "G\u00f3rowo I\u0142aweckie", "lat": "54.28333", "lon": "20.49640", "postalCode": "11-220"}, {"name": "I\u0142awa", "lat": "53.59370", "lon": "19.57128", "postalCode": "14-200"}, {"name": "I\u0142owo-Osada", "lat": "53.17513", "lon": "20.30090", "postalCode": "13-240"}, {"name": "Jamielnik", "lat": "53.52701", "lon": "19.50624", "postalCode": "13-332"}, {"name": "Janki", "lat": "54.29481", "lon": "22.30249", "postalCode": "19-500"}, {"name": "Jedwabno", "lat": "53.52824", "lon": "20.72806", "postalCode": "12-122"}, {"name": "Jeziorany", "lat": "53.97689", "lon": "20.74691", "postalCode": "11-320"}, {"name": "Jonkowo", "lat": "53.82702", "lon": "20.31259", "postalCode": "11-042"}, {"name": "Kara\u015b", "lat": "53.56183", "lon": "19.50234", "postalCode": "14-200"}, {"name": "Kisielice", "lat": "53.60835", "lon": "19.26384", "postalCode": "14-220"}, {"name": "Korsze", "lat": "54.17290", "lon": "21.14273", "postalCode": "11-430"}, {"name": "Kowale Oleckie", "lat": "54.16691", "lon": "22.41609", "postalCode": "19-420"}, {"name": "Kruklanki", "lat": "54.08805", "lon": "21.92111", "postalCode": "11-612"}, {"name": "Kurz\u0119tnik", "lat": "53.39964", "lon": "19.57670", "postalCode": "13-306"}, {"name": "Kurz\u0119tnik Dolny", "lat": "53.40571", "lon": "19.56450", "postalCode": "13-306"}, {"name": "K\u0119trzyn", "lat": "54.07880", "lon": "21.37029", "postalCode": "11-400"}, {"name": "Lidzbark", "lat": "53.26188", "lon": "19.82330", "postalCode": "13-230"}, {"name": "Lidzbark Warmi\u0144ski", "lat": "54.12355", "lon": "20.56418", "postalCode": "11-100"}, {"name": "Lubawa", "lat": "53.49683", "lon": "19.76208", "postalCode": "14-260"}, {"name": "Lubomino", "lat": "54.06634", "lon": "20.23948", "postalCode": "11-135"}, {"name": "Marcinkowo", "lat": "53.85906", "lon": "21.27338", "postalCode": "11-700"}, {"name": "Ma\u0142dyty", "lat": "53.91999", "lon": "19.74656", "postalCode": "14-330"}, {"name": "Miko\u0142ajki", "lat": "53.80330", "lon": "21.57467", "postalCode": "11-730"}, {"name": "Mi\u0142akowo", "lat": "54.00824", "lon": "20.07086", "postalCode": "14-310"}, {"name": "Mi\u0142ki", "lat": "53.94445", "lon": "21.88300", "postalCode": "11-513"}, {"name": "Mi\u0142om\u0142yn", "lat": "53.76438", "lon": "19.84117", "postalCode": "14-140"}, {"name": "Mor\u0105g", "lat": "53.91736", "lon": "19.92865", "postalCode": "14-300"}, {"name": "Mroczno", "lat": "53.35322", "lon": "19.70662", "postalCode": "13-324"}, {"name": "Mr\u0105gowo", "lat": "53.86359", "lon": "21.30770", "postalCode": "11-700"}, {"name": "Myszki", "lat": "53.66182", "lon": "22.15955", "postalCode": "12-230"}, {"name": "M\u0142ynary", "lat": "54.18752", "lon": "19.72322", "postalCode": "14-420"}, {"name": "Narzym", "lat": "53.18448", "lon": "20.25972", "postalCode": "13-240"}, {"name": "Nidzica", "lat": "53.36006", "lon": "20.42701", "postalCode": "13-100"}, {"name": "Nowa Wie\u015b E\u0142cka", "lat": "53.76679", "lon": "22.33554", "postalCode": "19-300"}, {"name": "Nowe Miasto Lubawskie", "lat": "53.42103", "lon": "19.59436", "postalCode": "13-300"}, {"name": "Olecko", "lat": "54.03504", "lon": "22.50675", "postalCode": "19-401"}, {"name": "Olsztyn", "lat": "53.77602", "lon": "20.47703", "postalCode": "10-950"}, {"name": "Olsztynek", "lat": "53.58356", "lon": "20.28919", "postalCode": "11-015"}, {"name": "Orneta", "lat": "54.11552", "lon": "20.13056", "postalCode": "11-130"}, {"name": "Orzysz", "lat": "53.81418", "lon": "21.93615", "postalCode": "12-250"}, {"name": "Osieka", "lat": "54.21093", "lon": "20.78639", "postalCode": "11-200"}, {"name": "Ostr\u00f3da", "lat": "53.70000", "lon": "19.96776", "postalCode": "14-100"}, {"name": "Pasym", "lat": "53.64736", "lon": "20.79252", "postalCode": "12-130"}, {"name": "Pas\u0142\u0119k", "lat": "54.06152", "lon": "19.66067", "postalCode": "14-400"}, {"name": "Piecki", "lat": "53.74726", "lon": "21.34308", "postalCode": "11-710"}, {"name": "Pieni\u0119\u017cno", "lat": "54.23698", "lon": "20.12931", "postalCode": "14-520"}, {"name": "Pisz", "lat": "53.62644", "lon": "21.80469", "postalCode": "12-200"}, {"name": "Pozezdrze", "lat": "54.14138", "lon": "21.85989", "postalCode": "11-610"}, {"name": "Prostki", "lat": "53.69771", "lon": "22.43374", "postalCode": "19-335"}, {"name": "P\u0142o\u015bnica", "lat": "53.27118", "lon": "20.01414", "postalCode": "13-206"}, {"name": "Radysy", "lat": "53.59164", "lon": "22.05795", "postalCode": "12-230"}, {"name": "Reszel", "lat": "54.05031", "lon": "21.14602", "postalCode": "11-440"}, {"name": "Rozogi", "lat": "53.48278", "lon": "21.35941", "postalCode": "12-114"}, {"name": "Ruciane-Nida", "lat": "53.64074", "lon": "21.53593", "postalCode": "12-220"}, {"name": "Rudzienice", "lat": "53.63058", "lon": "19.66243", "postalCode": "14-204"}, {"name": "Rybno", "lat": "53.38333", "lon": "19.93333", "postalCode": "13-220"}, {"name": "R\u00f3\u017cnowo", "lat": "53.85790", "lon": "20.50633", "postalCode": "11-001"}, {"name": "Samborowo", "lat": "53.66547", "lon": "19.81901", "postalCode": "14-100"}, {"name": "Spychowo", "lat": "53.60051", "lon": "21.34727", "postalCode": "12-140"}, {"name": "Srokowo", "lat": "54.21312", "lon": "21.52470", "postalCode": "11-420"}, {"name": "Stawiguda", "lat": "53.65910", "lon": "20.40028", "postalCode": "11-034"}, {"name": "Stradomno", "lat": "53.59256", "lon": "19.50053", "postalCode": "14-202"}, {"name": "Susz", "lat": "53.71887", "lon": "19.33831", "postalCode": "14-240"}, {"name": "Szczytno", "lat": "53.55827", "lon": "21.00724", "postalCode": "12-100"}, {"name": "S\u0119popol", "lat": "54.26890", "lon": "21.01776", "postalCode": "11-210"}, {"name": "Tolkmicko", "lat": "54.31990", "lon": "19.52852", "postalCode": "82-340"}, {"name": "Wawrowice", "lat": "53.44262", "lon": "19.46523", "postalCode": "13-306"}, {"name": "Wielbark", "lat": "53.39846", "lon": "20.94922", "postalCode": "12-160"}, {"name": "Wilkasy", "lat": "54.03512", "lon": "21.77106", "postalCode": "11-500"}, {"name": "Wydminy", "lat": "53.98268", "lon": "22.03542", "postalCode": "11-510"}, {"name": "W\u00f3jtowo", "lat": "53.78881", "lon": "20.60062", "postalCode": "11-010"}, {"name": "W\u0119gorzewo", "lat": "54.21493", "lon": "21.72263", "postalCode": "11-600"}, {"name": "\u0141ugwa\u0142d", "lat": "53.84672", "lon": "20.45291", "postalCode": "11-001"}, {"name": "\u015awi\u0119tajno", "lat": "53.56324", "lon": "21.22259", "postalCode": "12-140"}, {"name": "Baranowo", "lat": "52.43669", "lon": "16.78879", "postalCode": "62-081"}, {"name": "Borek Wielkopolski", "lat": "51.91727", "lon": "17.24588", "postalCode": "63-810"}, {"name": "Budzy\u0144", "lat": "52.89052", "lon": "16.98562", "postalCode": "64-840"}, {"name": "Buk", "lat": "52.35477", "lon": "16.51973", "postalCode": "64-320"}, {"name": "Chodzie\u017c", "lat": "52.99183", "lon": "16.91639", "postalCode": "64-800"}, {"name": "Czapury", "lat": "52.32782", "lon": "16.91068", "postalCode": "61-160"}, {"name": "Czarnk\u00f3w", "lat": "52.90161", "lon": "16.56829", "postalCode": "64-700"}, {"name": "Czempi\u0144", "lat": "52.14164", "lon": "16.76047", "postalCode": "64-020"}, {"name": "Czerwonak", "lat": "52.46680", "lon": "16.98927", "postalCode": "62-004"}, {"name": "Dopiewo", "lat": "52.35646", "lon": "16.67792", "postalCode": "62-070"}, {"name": "D\u0105br\u00f3wka", "lat": "52.36435", "lon": "16.70384", "postalCode": "62-070"}, {"name": "Gniezno", "lat": "52.52918", "lon": "17.59895", "postalCode": "62-200"}, {"name": "Gosty\u0144", "lat": "51.88363", "lon": "17.01231", "postalCode": "63-800"}, {"name": "Go\u0142a\u0144cz", "lat": "52.94562", "lon": "17.30363", "postalCode": "62-130"}, {"name": "Grab\u00f3w nad Prosn\u0105", "lat": "51.50681", "lon": "18.12141", "postalCode": "63-520"}, {"name": "Grodzisk Wielkopolski", "lat": "52.22705", "lon": "16.36207", "postalCode": "62-065"}, {"name": "Janikowo", "lat": "52.44331", "lon": "17.03320", "postalCode": "62-006"}, {"name": "Jarocin", "lat": "51.97589", "lon": "17.50121", "postalCode": "63-200"}, {"name": "Jastrowie", "lat": "53.42059", "lon": "16.81783", "postalCode": "64-915"}, {"name": "Kalisz", "lat": "51.76272", "lon": "18.09094", "postalCode": "62-800"}, {"name": "Kamionki", "lat": "52.28656", "lon": "16.98945", "postalCode": "62-023"}, {"name": "Kiekrz", "lat": "52.48637", "lon": "16.75093", "postalCode": "62-090"}, {"name": "Kobylin", "lat": "51.71685", "lon": "17.22657", "postalCode": "63-740"}, {"name": "Komorniki", "lat": "52.33547", "lon": "16.80969", "postalCode": "62-052"}, {"name": "Konin", "lat": "52.21424", "lon": "18.25861", "postalCode": "62-500"}, {"name": "Kostrzyn", "lat": "52.40098", "lon": "17.22671", "postalCode": "62-025"}, {"name": "Kotlin", "lat": "51.91801", "lon": "17.64855", "postalCode": "63-220"}, {"name": "Kozieg\u0142owy", "lat": "52.44863", "lon": "16.99509", "postalCode": "62-028"}, {"name": "Ko\u0142o", "lat": "52.19634", "lon": "18.63834", "postalCode": "62-600"}, {"name": "Ko\u015bcian", "lat": "52.08491", "lon": "16.64780", "postalCode": "64-000"}, {"name": "Ko\u017amin Wielkopolski", "lat": "51.82523", "lon": "17.45462", "postalCode": "63-720"}, {"name": "Krobia", "lat": "51.77418", "lon": "16.98485", "postalCode": "63-840"}, {"name": "Krotoszyn", "lat": "51.69865", "lon": "17.44274", "postalCode": "63-700"}, {"name": "Krzywi\u0144", "lat": "51.96458", "lon": "16.82105", "postalCode": "64-010"}, {"name": "Krzy\u017c Wielkopolski", "lat": "52.87943", "lon": "16.01650", "postalCode": "64-761"}, {"name": "K\u00f3rnik", "lat": "52.24811", "lon": "17.08378", "postalCode": "62-035"}, {"name": "K\u0119pno", "lat": "51.28176", "lon": "17.99116", "postalCode": "63-600"}, {"name": "K\u0142odawa", "lat": "52.25393", "lon": "18.91355", "postalCode": "62-650"}, {"name": "Leszno", "lat": "51.84266", "lon": "16.57781", "postalCode": "64-100"}, {"name": "Lubo\u0144", "lat": "52.34163", "lon": "16.87561", "postalCode": "62-030"}, {"name": "Margonin", "lat": "52.97299", "lon": "17.09765", "postalCode": "64-830"}, {"name": "Miejska G\u00f3rka", "lat": "51.65486", "lon": "16.96104", "postalCode": "63-910"}, {"name": "Mi\u0119dzych\u00f3d", "lat": "52.60250", "lon": "15.89157", "postalCode": "64-400"}, {"name": "Mosina", "lat": "52.24321", "lon": "16.85196", "postalCode": "62-050"}, {"name": "Murowana Go\u015blina", "lat": "52.57379", "lon": "17.01054", "postalCode": "62-095"}, {"name": "Nowe Skalmierzyce", "lat": "51.71162", "lon": "18.00164", "postalCode": "63-460"}, {"name": "Nowy Tomy\u015bl", "lat": "52.31667", "lon": "16.13333", "postalCode": "64-300"}, {"name": "Oborniki", "lat": "52.64397", "lon": "16.81828", "postalCode": "64-600"}, {"name": "Odolan\u00f3w", "lat": "51.57604", "lon": "17.67412", "postalCode": "63-430"}, {"name": "Opalenica", "lat": "52.30819", "lon": "16.41250", "postalCode": "64-330"}, {"name": "Opat\u00f3wek", "lat": "51.73967", "lon": "18.22257", "postalCode": "62-860"}, {"name": "Ostrzesz\u00f3w", "lat": "51.42645", "lon": "17.93510", "postalCode": "63-500"}, {"name": "Ostr\u00f3w Wielkopolski", "lat": "51.65217", "lon": "17.81083", "postalCode": "63-400"}, {"name": "Piaski", "lat": "51.88362", "lon": "17.07346", "postalCode": "63-820"}, {"name": "Pi\u0142a", "lat": "53.15324", "lon": "16.73333", "postalCode": "64-920"}, {"name": "Pleszew", "lat": "51.88578", "lon": "17.85921", "postalCode": "63-300"}, {"name": "Plewiska", "lat": "52.36473", "lon": "16.81106", "postalCode": "62-064"}, {"name": "Pniewy", "lat": "52.50889", "lon": "16.25939", "postalCode": "62-045"}, {"name": "Pobiedziska", "lat": "52.47829", "lon": "17.28143", "postalCode": "62-010"}, {"name": "Pozna\u0144", "lat": "52.37270", "lon": "16.85599", "postalCode": "60-001"}, {"name": "Prze\u017amierowo", "lat": "52.42452", "lon": "16.78829", "postalCode": "62-081"}, {"name": "Puszczykowo", "lat": "52.27727", "lon": "16.85713", "postalCode": "62-040"}, {"name": "Pyzdry", "lat": "52.16857", "lon": "17.69038", "postalCode": "62-310"}, {"name": "Rakoniewice", "lat": "52.13760", "lon": "16.27457", "postalCode": "62-067"}, {"name": "Rawicz", "lat": "51.60875", "lon": "16.87278", "postalCode": "63-900"}, {"name": "Rogo\u017ano", "lat": "52.75185", "lon": "16.99472", "postalCode": "64-610"}, {"name": "Rokietnica", "lat": "52.51359", "lon": "16.74704", "postalCode": "62-090"}, {"name": "Rychtal", "lat": "51.14515", "lon": "17.85232", "postalCode": "63-630"}, {"name": "Rydzyna", "lat": "51.78634", "lon": "16.66774", "postalCode": "64-130"}, {"name": "Sierak\u00f3w", "lat": "52.65000", "lon": "16.08333", "postalCode": "64-410"}, {"name": "Skoki", "lat": "52.67221", "lon": "17.15844", "postalCode": "62-085"}, {"name": "Sk\u00f3rzewo", "lat": "52.39030", "lon": "16.79074", "postalCode": "60-185"}, {"name": "Strza\u0142kowo", "lat": "52.31573", "lon": "17.80436", "postalCode": "62-420"}, {"name": "St\u0119szew", "lat": "52.28125", "lon": "16.70430", "postalCode": "62-060"}, {"name": "Suchy Las", "lat": "52.47578", "lon": "16.88370", "postalCode": "60-462"}, {"name": "Swarz\u0119dz", "lat": "52.40768", "lon": "17.06927", "postalCode": "62-020"}, {"name": "Szamocin", "lat": "53.02846", "lon": "17.12220", "postalCode": "64-820"}, {"name": "Szamotu\u0142y", "lat": "52.61197", "lon": "16.58278", "postalCode": "64-500"}, {"name": "S\u0142upca", "lat": "52.28910", "lon": "17.88336", "postalCode": "62-400"}, {"name": "Tarnowo Podg\u00f3rne", "lat": "52.44947", "lon": "16.67143", "postalCode": "62-080"}, {"name": "Trzcianka", "lat": "53.04059", "lon": "16.46245", "postalCode": "64-980"}, {"name": "Trzemeszno", "lat": "52.55989", "lon": "17.82255", "postalCode": "62-240"}, {"name": "Turek", "lat": "52.01508", "lon": "18.49974", "postalCode": "62-700"}, {"name": "Wiele\u0144", "lat": "52.88852", "lon": "16.16989", "postalCode": "64-730"}, {"name": "Wiry", "lat": "52.31753", "lon": "16.85807", "postalCode": "62-051"}, {"name": "Witkowo", "lat": "52.44026", "lon": "17.77616", "postalCode": "62-230"}, {"name": "Wolsztyn", "lat": "52.10878", "lon": "16.12549", "postalCode": "64-200"}, {"name": "Wronki", "lat": "52.70710", "lon": "16.37975", "postalCode": "64-510"}, {"name": "Wrze\u015bnia", "lat": "52.32233", "lon": "17.56544", "postalCode": "62-300"}, {"name": "Wyrzysk", "lat": "53.15076", "lon": "17.27000", "postalCode": "89-300"}, {"name": "W\u0105growiec", "lat": "52.80789", "lon": "17.19710", "postalCode": "62-100"}, {"name": "W\u0142oszakowice", "lat": "51.93352", "lon": "16.36844", "postalCode": "64-140"}, {"name": "Zag\u00f3r\u00f3w", "lat": "52.16854", "lon": "17.89881", "postalCode": "62-410"}, {"name": "Zalasewo", "lat": "52.38865", "lon": "17.07588", "postalCode": "62-020"}, {"name": "Zb\u0105szy\u0144", "lat": "52.25183", "lon": "15.92258", "postalCode": "64-360"}, {"name": "Zduny", "lat": "51.64527", "lon": "17.37915", "postalCode": "63-760"}, {"name": "Z\u0142ot\u00f3w", "lat": "53.36246", "lon": "17.04217", "postalCode": "77-400"}, {"name": "\u015amigiel", "lat": "52.01275", "lon": "16.52593", "postalCode": "64-030"}, {"name": "\u015arem", "lat": "52.09116", "lon": "17.01848", "postalCode": "63-100"}, {"name": "\u015aroda Wielkopolska", "lat": "52.22811", "lon": "17.28452", "postalCode": "63-000"}, {"name": "Banie", "lat": "53.10155", "lon": "14.66858", "postalCode": "74-110"}, {"name": "Barlinek", "lat": "52.99402", "lon": "15.22102", "postalCode": "74-320"}, {"name": "Barwice", "lat": "53.74390", "lon": "16.35692", "postalCode": "78-460"}, {"name": "Bezrzecze", "lat": "53.46146", "lon": "14.45428", "postalCode": "71-218"}, {"name": "Bia\u0142ogard", "lat": "54.00229", "lon": "15.98862", "postalCode": "78-200"}, {"name": "Bia\u0142y B\u00f3r", "lat": "53.90832", "lon": "16.94480", "postalCode": "78-425"}, {"name": "Bobolice", "lat": "53.95514", "lon": "16.59001", "postalCode": "76-020"}, {"name": "Borne Sulinowo", "lat": "53.57867", "lon": "16.54280", "postalCode": "78-449"}, {"name": "Cedynia", "lat": "52.87923", "lon": "14.20651", "postalCode": "74-520"}, {"name": "Chociwel", "lat": "53.46677", "lon": "15.33427", "postalCode": "73-120"}, {"name": "Chojna", "lat": "52.96270", "lon": "14.43392", "postalCode": "74-500"}, {"name": "Choszczno", "lat": "53.16622", "lon": "15.41687", "postalCode": "73-200"}, {"name": "Czaplinek", "lat": "53.55644", "lon": "16.23581", "postalCode": "78-550"}, {"name": "Cz\u0142opa", "lat": "53.08668", "lon": "16.12154", "postalCode": "78-630"}, {"name": "Dar\u0142owo", "lat": "54.41224", "lon": "16.42696", "postalCode": "76-150"}, {"name": "Dobra", "lat": "53.58497", "lon": "15.31141", "postalCode": "72-210"}, {"name": "Dobrzany", "lat": "53.35755", "lon": "15.43058", "postalCode": "73-130"}, {"name": "Dolice", "lat": "53.18955", "lon": "15.20288", "postalCode": "73-115"}, {"name": "Do\u0142uje", "lat": "53.43625", "lon": "14.41087", "postalCode": "72-003"}, {"name": "Drawno", "lat": "53.21861", "lon": "15.75968", "postalCode": "73-220"}, {"name": "Drawsko Pomorskie", "lat": "53.52981", "lon": "15.81134", "postalCode": "78-500"}, {"name": "Dziwn\u00f3w", "lat": "54.02833", "lon": "14.76826", "postalCode": "72-420"}, {"name": "D\u0119bno", "lat": "52.73584", "lon": "14.69133", "postalCode": "74-400"}, {"name": "Golczewo", "lat": "53.82499", "lon": "14.97923", "postalCode": "72-410"}, {"name": "Goleni\u00f3w", "lat": "53.56253", "lon": "14.82844", "postalCode": "72-100"}, {"name": "Go\u015bcino", "lat": "54.05126", "lon": "15.65464", "postalCode": "78-120"}, {"name": "Gryfice", "lat": "53.91333", "lon": "15.20306", "postalCode": "72-300"}, {"name": "Gryfino", "lat": "53.25009", "lon": "14.51084", "postalCode": "74-101"}, {"name": "Grz\u0119dzice", "lat": "53.36912", "lon": "14.97730", "postalCode": "73-110"}, {"name": "I\u0144sko", "lat": "53.43665", "lon": "15.55062", "postalCode": "73-140"}, {"name": "Kalisz Pomorski", "lat": "53.29594", "lon": "15.91651", "postalCode": "78-540"}, {"name": "Kamie\u0144 Pomorski", "lat": "53.97046", "lon": "14.77527", "postalCode": "72-400"}, {"name": "Karlino", "lat": "54.03893", "lon": "15.88066", "postalCode": "78-230"}, {"name": "Kliniska Wielkie", "lat": "53.46161", "lon": "14.78549", "postalCode": "72-123"}, {"name": "Kobylanka", "lat": "53.35706", "lon": "14.87643", "postalCode": "73-108"}, {"name": "Konikowo", "lat": "54.14866", "lon": "16.17599", "postalCode": "76-024"}, {"name": "Koszalin", "lat": "54.19044", "lon": "16.18948", "postalCode": "75-450"}, {"name": "Ko\u0142baskowo", "lat": "53.33699", "lon": "14.43938", "postalCode": "72-001"}, {"name": "Ko\u0142obrzeg", "lat": "54.17944", "lon": "15.55643", "postalCode": "78-100"}, {"name": "Lipiany", "lat": "53.00378", "lon": "14.97059", "postalCode": "74-240"}, {"name": "Maszewo", "lat": "53.49561", "lon": "15.06281", "postalCode": "72-130"}, {"name": "Mielno", "lat": "54.26336", "lon": "16.06722", "postalCode": "76-032"}, {"name": "Mierzyn", "lat": "53.42912", "lon": "14.46590", "postalCode": "72-006"}, {"name": "Mieszkowice", "lat": "52.78206", "lon": "14.48998", "postalCode": "74-505"}, {"name": "Miros\u0142awiec", "lat": "53.28029", "lon": "16.43889", "postalCode": "78-600"}, {"name": "Mi\u0119dzyzdroje", "lat": "53.92912", "lon": "14.44954", "postalCode": "72-500"}, {"name": "Mory\u0144", "lat": "52.85759", "lon": "14.39724", "postalCode": "74-503"}, {"name": "Morzyczyn", "lat": "53.35280", "lon": "14.92778", "postalCode": "73-108"}, {"name": "Motaniec", "lat": "53.36155", "lon": "14.85606", "postalCode": "73-108"}, {"name": "Mrze\u017cyno", "lat": "54.14343", "lon": "15.29101", "postalCode": "72-330"}, {"name": "My\u015blib\u00f3rz", "lat": "52.92164", "lon": "14.86529", "postalCode": "74-300"}, {"name": "M\u015bcice", "lat": "54.21887", "lon": "16.09247", "postalCode": "76-031"}, {"name": "Niechorze", "lat": "54.09614", "lon": "15.08087", "postalCode": "72-350"}, {"name": "Nowogard", "lat": "53.67158", "lon": "15.11876", "postalCode": "72-200"}, {"name": "Pe\u0142czyce", "lat": "53.04183", "lon": "15.30412", "postalCode": "73-260"}, {"name": "Pilchowo", "lat": "53.49753", "lon": "14.48181", "postalCode": "71-370"}, {"name": "Pobierowo", "lat": "54.06194", "lon": "14.94363", "postalCode": "72-346"}, {"name": "Polan\u00f3w", "lat": "54.11808", "lon": "16.68601", "postalCode": "76-010"}, {"name": "Police", "lat": "53.54680", "lon": "14.56514", "postalCode": "72-010"}, {"name": "Po\u0142czyn-Zdr\u00f3j", "lat": "53.76552", "lon": "16.09435", "postalCode": "78-320"}, {"name": "Przec\u0142aw", "lat": "53.37446", "lon": "14.47308", "postalCode": "72-005"}, {"name": "Pyrzyce", "lat": "53.14945", "lon": "14.88850", "postalCode": "74-200"}, {"name": "P\u0142oty", "lat": "53.80408", "lon": "15.26804", "postalCode": "72-310"}, {"name": "Recz", "lat": "53.25898", "lon": "15.54737", "postalCode": "73-210"}, {"name": "Resko", "lat": "53.77096", "lon": "15.40616", "postalCode": "72-315"}, {"name": "Rewal", "lat": "54.08173", "lon": "15.01807", "postalCode": "72-344"}, {"name": "Rosnowo", "lat": "54.06667", "lon": "16.30000", "postalCode": "76-042"}, {"name": "Ryma\u0144", "lat": "53.94196", "lon": "15.52965", "postalCode": "78-125"}, {"name": "Sarbinowo", "lat": "54.24777", "lon": "15.94403", "postalCode": "76-034"}, {"name": "Sian\u00f3w", "lat": "54.22675", "lon": "16.29621", "postalCode": "76-004"}, {"name": "Stare Bielice", "lat": "54.17490", "lon": "16.11915", "postalCode": "76-039"}, {"name": "Stargard", "lat": "53.33643", "lon": "15.04314", "postalCode": "73-100"}, {"name": "Stepnica", "lat": "53.65152", "lon": "14.62644", "postalCode": "72-112"}, {"name": "Sucha\u0144", "lat": "53.27957", "lon": "15.32599", "postalCode": "73-132"}, {"name": "Sulikowo", "lat": "53.77887", "lon": "16.32331", "postalCode": "78-452"}, {"name": "Szczecin", "lat": "53.39368", "lon": "14.51525", "postalCode": "70-006"}, {"name": "Szczecinek", "lat": "53.70573", "lon": "16.69825", "postalCode": "78-400"}, {"name": "S\u0142awno", "lat": "54.35649", "lon": "16.69036", "postalCode": "76-100"}, {"name": "S\u0142awoborze", "lat": "53.88927", "lon": "15.71041", "postalCode": "78-314"}, {"name": "Tanowo", "lat": "53.53727", "lon": "14.47788", "postalCode": "72-004"}, {"name": "Trzci\u0144sko-Zdr\u00f3j", "lat": "52.96432", "lon": "14.61165", "postalCode": "74-510"}, {"name": "Trzebiat\u00f3w", "lat": "54.06168", "lon": "15.27184", "postalCode": "72-320"}, {"name": "Tuczno", "lat": "53.19376", "lon": "16.15585", "postalCode": "78-640"}, {"name": "Tychowo", "lat": "53.92877", "lon": "16.26088", "postalCode": "78-220"}, {"name": "Ustronie Morskie", "lat": "54.21554", "lon": "15.75683", "postalCode": "78-111"}, {"name": "Warzymice", "lat": "53.38408", "lon": "14.46748", "postalCode": "72-005"}, {"name": "Wa\u0142cz", "lat": "53.28029", "lon": "16.43889", "postalCode": "78-600"}, {"name": "Wierzchowo", "lat": "53.45810", "lon": "16.10076", "postalCode": "78-530"}, {"name": "Wolin", "lat": "53.84488", "lon": "14.61567", "postalCode": "72-510"}, {"name": "Wo\u0142czkowo", "lat": "53.47480", "lon": "14.44878", "postalCode": "72-003"}, {"name": "Wysiedle", "lat": "53.62665", "lon": "15.68152", "postalCode": "73-150"}, {"name": "W\u0119gorzyno", "lat": "53.53917", "lon": "15.56061", "postalCode": "73-155"}, {"name": "Za\u0142om", "lat": "53.43603", "lon": "14.73058", "postalCode": "70-895"}, {"name": "Zieleniewo", "lat": "54.14522", "lon": "15.56183", "postalCode": "78-100"}, {"name": "Z\u0142ocieniec", "lat": "53.53362", "lon": "16.00928", "postalCode": "78-520"}, {"name": "\u0141obez", "lat": "53.63915", "lon": "15.62303", "postalCode": "73-150"}, {"name": "\u015awidwin", "lat": "53.77443", "lon": "15.77633", "postalCode": "78-300"}, {"name": "\u015awinouj\u015bcie", "lat": "53.85472", "lon": "14.31041", "postalCode": "72-603"}, {"name": "\u017belechowo", "lat": "53.05900", "lon": "14.53452", "postalCode": "74-121"}]